call_sign,channel,frequency_mhz,service_type,status,city,state,country,facility_id,erp_kw,haat_m,latitude,longitude,licensee
KKQA,201,88.1,FM,LIC,AKUTAN,AK,US,757242,0.09,-102.0,-243987.700025,-165.772778,"757242          0.09 kW       -102. m     26. m        m   N 54  8     6  W 165 46    22             ALEUTIAN PENINSULA BROADCASTING, INC."
KRUA,201,88.1,FM,LIC,ANCHORAGE,AK,US,69007,0.32,297.0,-209045.116756,-149.515611,69007           0.32 kW        297. m    619. m        m   N 61 20   8.8  W 149 30  56.2  1204036    UNIVERSITY OF ALASKA
K201CH,201,88.1,FX,LIC,CHENEGA BAY,AK,US,65234,0.021,-136.0,60.065194,-148.012306,UNKNOWN
KCUK,201,88.1,FM,LIC,CHEVAK,AK,US,33453,6.0,24.0,61.528611,-165.591222,UNKNOWN
K201BI,201,88.1,FX,LIC,CORDOVA,AK,US,65233,0.023,0.0,60.553333,-145.733639,"TERMINAL RADIO, INC."
KFPS,201,88.1,FM,LIC,FALSE PASS,AK,US,203577,0.09,-228.0,-123079.950025,-163.414194,"203577          0.09 kW       -228. m     18. m        m   N 54 51  20.8  W 163 24  51.1             ALEUTIAN PENINSULA BROADCASTING, INC."
KIYU-FM,201,88.1,FM,LIC,GALENA,AK,US,178861,0.09,11.0,-270891.016692,-156.876028,178861          0.09 kW         11. m     60. m        m   N 64 44  26.9  W 156 52  33.7             BIG RIVER PUBLIC BROADCASTING CORPORATION
K201AM,201,88.1,FX,LIC,GUSTAVUS,AK,US,8654,0.051,0.0,58.417417,-135.710139,UNKNOWN
KAKI,201,88.1,FM,STA,JUNEAU,AK,US,175915,1.7,-333.0,-283940.917139,-134.442222,"175915           1.7 kW       -333. m     42. m        m   N 58 18   4.0  W 134 26  32.0  1028325    K-LOVE, INC."
KAKI,201,88.1,FM,LIC,JUNEAU,AK,US,175915,1.7,-333.0,58.301111,-134.442222,"K-LOVE, INC."
K201AH,201,88.1,FX,LIC,KAKTOVIK,AK,US,60378,0.039,0.0,70.126472,-143.621667,UNKNOWN
KOGJ,201,88.1,FM,LIC,KENAI,AK,US,174802,1.1,104.0,60.521917,-151.073333,CSN INTERNATIONAL
K201EG,201,88.1,FX,LIC,KETCHIKAN,AK,US,84048,0.09,0.0,55.353556,-131.684194,"K-LOVE, INC."
K201DA,201,88.1,FX,LIC,KING COVE,AK,US,16933,0.25,0.0,55.060222,-162.328667,UNKNOWN
K201AG,201,88.1,FX,LIC,NUIQSUT,AK,US,60379,0.2,0.0,70.213833,-150.990583,UNKNOWN
K201AV,201,88.1,FX,LIC,POINT LAY,AK,US,60380,0.048,0.0,69.729389,-163.016528,UNKNOWN
K201AL,201,88.1,FX,LIC,PORT PROTECTION,AK,US,47412,0.054,0.0,56.32075,-133.029194,UNKNOWN
K201AO,201,88.1,FX,LIC,SEWARD,AK,US,53867,0.049,0.0,60.10275,-149.438806,UNKNOWN
K201CL,201,88.1,FX,LIC,TATITLEK,AK,US,65237,0.023,0.0,60.868333,-146.681722,UNKNOWN
WKRE,201,88.1,FM,LIC,ARGO,AL,US,169863,1.5,120.0,33.695361,-86.517472,UNKNOWN
WSJL,201,88.1,FM,LIC,BESSEMER,AL,US,88660,6.0,98.0,33.395944,-87.018611,"ELIJAH RADIO, INC."
WAYH,201,88.1,FM,LIC,ARVEST,AL,US,61509,3.5,204.0,34.818972,-86.738611,HOPE MEDIA GROUP
WOKM-LP,201,88.1,FL,AMD,MOBILE,AL,US,787871,0.05,12.0,-245750.183347,-88.121944,787871          0.05 kW         12. m     33. m        m   N 30 41    58  W  88 07    19  1032992    MOBILE ENVIRONMENTAL JUSTICE ACTION COALITION
KBAP,201,88.1,FM,LIC,BATESVILLE,AR,US,175536,0.25,39.0,35.797833,-91.67125,UNKNOWN
KRQA,201,88.1,FM,LIC,BENTONVILLE,AR,US,77546,1.0,70.0,36.393694,-94.181583,"K-LOVE, INC."
KBPW,201,88.1,FM,LIC,AMPTON,AR,US,91490,60.0,103.0,33.5365,-92.468778,AMERICAN FAMILY ASSOCIATION
KCGS-FM,201,88.1,FM,LIC,MARSHALL,AR,US,765851,38.0,191.0,-217772.183439,-92.616111,"765851           .38 kW        191. m    525. m        m   N 35 54     5  W  92 36    58  1308789    ICHTHUS FAMILY HOPE, INC."
KGIF,201,88.1,FM,LIC,TAFUNA,AS,US,175279,1.5,413.0,-14.3225,-170.763056,LEONE CHURCH OF CHRIST
KTHO,201,88.1,FM,LIC,DEWEY-HUMBOLDT,AZ,US,768270,3.3,491.0,-272143.500917,-112.533814,"768270           3.3 kW DA     491. m   2182. m        m   N 34 29 24.26  W 112 32  1.73             ADVANCE MINISTRIES, INC."
K201IB,201,88.1,FX,LIC,EBER-OVERGAARD,AZ,US,146233,0.205,0.0,34.42225,-110.566222,UNKNOWN
K201ER,201,88.1,FX,LIC,OLBROOK,AZ,US,89665,0.05,29.0,34.918083,-110.140944,"ADVANCE MINISTRIES, INC. D/B/A/ NEW LIFE CHRISTIAN SCHOOL"
KUYI,201,88.1,FM,LIC,OTEVILLA,AZ,US,85622,69.0,124.0,35.808056,-110.27375,THE HOPI FOUNDATION
KLTU,201,88.1,FM,LIC,MAMMOTH,AZ,US,79359,16.0,603.0,-145929.654444,-111.116972,"79359            16. kW DA     603. m   1372. m        m   N 32 14  56.2  W 111  7   1.1  1218220    K-LOVE, INC."
KPJM,201,88.1,FM,LIC,PAYSON,AZ,US,767421,1.0,268.0,-230365.350028,-111.193444,"767421            .1 kW        268. m   1920. m        m   N 34 17  16.1  W 111 11  36.4             KPJM-LP, INC."
KREE,201,88.1,FM,LIC,PIRTLEVILLE,AZ,US,174148,1.5,46.0,31.348444,-109.480056,"RADIO BILINGUE, INC."
K202BU,201,88.1,FX,LIC,QUARTZSITE,AZ,US,16763,0.013,0.0,-149758.383337,-114.059917,"16763          0.013 kW DA       0. m    784. m        m   N 33 40   3.1  W 114  3  35.7             ADVANCE MINISTRIES, INC. D/B/A"
KNNB,201,88.1,FM,LIC,WHITERIVER,AZ,US,2406,0.63,183.0,33.763083,-109.961472,UNKNOWN
KCFY,201,88.1,FM,LIC,YUMA,AZ,US,70454,3.0,73.0,32.642,-114.560222,"RELEVANT MEDIA, INC."
KRTM,201,88.1,FM,STA,BANNING,CA,US,91840,0.15,774.0,-280104.666708,-116.814194,"91840           0.15 kW DA     774. m   2437. m        m   N 34  2  16.0  W 116 48  51.1             PENFOLD COMMUNICATIONS, INC."
KRTM,201,88.1,FM,LIC,BANNING,CA,US,91840,0.15,774.0,34.037778,-116.814194,UNKNOWN
K201BV,201,88.1,FX,LIC,BENICIA-MARTINEZ,CA,US,35499,0.004,113.0,38.006861,-122.143833,UNKNOWN
KWTF,201,88.1,FM,LIC,BODEGA BAY,CA,US,175619,0.1,14.0,-242484.983361,-122.975167,175619           0.1 kW         14. m    124. m        m   N 38 21  38.7  W 122 58  30.6             KWTF RADIO
KDUP,201,88.1,FM,LIC,CEDARVILLE,CA,US,172273,0.27,-32.0,41.636833,-120.092139,UNKNOWN
K201AD,201,88.1,FX,LIC,UNKNOWN,XX,US,28593,0.009,398.0,35.479944,-117.683944,UNKNOWN
KECG,201,88.1,FM,LIC,EL CERRITO,CA,US,19081,0.017,-29.0,37.905472,-122.293833,UNKNOWN
KMUE,201,88.1,FM,LIC,EUREKA,CA,US,55429,10.0,494.0,40.727361,-123.972556,REDWOOD COMMUNITY RADIO
K201HR,201,88.1,FX,LIC,FORT BRAGG,CA,US,41159,0.099,0.0,39.467361,-123.760556,UNKNOWN
KFCF,201,88.1,FM,LIC,FRESNO,CA,US,22641,2.4,579.0,37.073,-119.431778,UNKNOWN
KPFZ-FM,201,88.1,FM,LIC,LAKEPORT,CA,US,90952,0.3,655.0,38.989611,-122.769139,UNKNOWN
KLWG,201,88.1,FM,LIC,LOMPOC,CA,US,90485,2.5,571.0,34.909972,-120.187083,UNKNOWN
KLWG,201,88.1,FM,LIC,LOMPOC,CA,US,90485,0.066,328.0,34.603583,-120.489056,CALVARY CHAPEL OF LOMPOC
KKJZ,201,88.1,FM,LIC,LONG BEACH,CA,US,8197,30.0,137.0,33.799472,-118.162833,"CALIFORNIA STATE UNIV., LONG BEACH RESEARCH FOUNDATION"
KKJZ,201,88.1,FM,CP,LONG BEACH,CA,US,8197,7.0,0.0,-286405.618611,-118.162833,"8197              7. kW        129. m   141.7 m        m   N 33 47  58.1  W 118  9  46.2  1218222    CALIFORNIA STATE UNIV., LONG BEACH RESEARCH FOUNDATION"
K201FW,201,88.1,FX,MOD,LOS GATOS,CA,US,93377,12.0,760.0,-221010.283367,-121.890722,93377            .12 kW DA     760. m     56. m        m   N 37 21   0.8  W 121 53  26.6  1271301    CSN INTERNATIONAL
K201FW,201,88.1,FX,LIC,LOS GATOS,CA,US,93377,0.009,760.0,37.163833,-121.918278,UNKNOWN
KLHM,201,88.1,FM,LIC,LUCERNE VALLEY,CA,US,768305,75.0,-216.0,-280086.083542,-116.963056,"768305           .75 kW       -216. m   1085. m        m   N 34 24  11.9  W 116 57  47.0             ONDAS DE VIDA, INC."
KCRY,201,88.1,FM,LIC,MOJAVE,CA,US,59092,10.5,-29.0,35.122194,-118.207861,SANTA MONICA COMMUNITY COLLEGE DISTRICT
KNSQ,201,88.1,FM,LIC,MOUNT SHASTA,CA,US,62957,1.2,0.0,41.221806,-122.308611,UNKNOWN
K201IH,201,88.1,FX,LIC,NAPA,CA,US,91413,0.01,0.0,38.264083,-122.216083,CSN INTERNATIONAL
K201IS,201,88.1,FX,AMD,OCEANSIDE,CA,US,91871,0.01,0.0,-221616.183336,-116.849031,91871           0.01 kW DA    760.2 m   1737. m        m   N 33 18 29.33  W 116 50 56.51             CSN INTERNATIONAL
KQNC,201,88.1,FM,LIC,QUINCY,CA,US,122435,0.5,-346.0,39.937111,-120.948556,"CALIFORNIA STATE UNIVERSITY, SACRAMENTO"
K213BZ,201,88.1,FX,MOD,RICHVALE,CA,US,20776,0.01,0.0,-253107.266669,-121.820556,20776           0.01 kW        588. m   666.8 m        m   N 39 12  20.0  W 121 49  14.0  1014623    CSN INTERNATIONAL
K201IS,201,88.1,FX,LIC,RINCON,CA,US,91871,0.01,0.0,33.308361,-116.848889,UNKNOWN
K201ES,201,88.1,FX,LIC,UNKNOWN,XX,US,90670,0.05,78.0,33.617528,-114.773306,UNKNOWN
KEBR,201,88.1,FM,LIC,SACRAMENTO,CA,US,20746,8.4,303.0,38.247139,-121.501889,"LOAM MEDIA, INC."
KYML,201,88.1,FM,LIC,SAN DIEGO COUNTRY ESTATES,CA,US,767224,0.06,705.0,-280099.066683,-116.586194,"767224          0.06 kW DA     705. m   1842. m        m   N 33 00  22.9  W 116 35  10.3             CSN INTERNATIONAL, INC."
KSRH,201,88.1,FM,LIC,SAN RAFAEL,CA,US,58923,0.007,-70.0,-270643.050002,-122.513056,58923          0.007 kW        -70. m     13. m        m   N 37 58  11.8  W 122 30  47.0             SAN RAFAEL HIGH SCHOOL
KZSC,201,88.1,FM,LIC,SANTA CRUZ,CA,US,66310,20.0,0.0,37.002722,-122.052167,UNKNOWN
KZSC,201,88.1,FM,LIC,SANTA CRUZ,CA,US,66310,0.9,0.0,37.002722,-122.052167,UNKNOWN
K201AJ,201,88.1,FX,LIC,UNKNOWN,XX,US,8353,0.019,0.0,38.916583,-119.963222,"CALIFORNIA STATE UNIVERSITY, SACRAMENTO"
K205EK,201,88.1,FX,MOD,SUSANVILLE,CA,US,8422,11.0,0.0,-284333.36667,-120.571028,8422            .011 kW      -145.3 m  1807.9 m        m   N 40 27  11.7  W 120 34  15.7  1245857    CSN INTERNATIONAL INC.
K201FV,201,88.1,FX,LIC,TRUCKEE,CA,US,87063,0.065,0.0,39.325944,-120.19975,UNKNOWN
K201IL,201,88.1,FX,LIC,BRECKENRIDGE,CO,US,90004,0.125,0.0,39.63025,-106.0475,UNKNOWN
K201FK,201,88.1,FX,LIC,BURLINGTON,CO,US,92415,0.205,0.0,39.294722,-102.26075,CSN INTERNATIONAL
KDNK,201,88.1,FM,LIC,GLENWOOD SPRINGS,CO,US,88445,1.2,775.0,39.418861,-107.370028,UNKNOWN
KAFM,201,88.1,FM,LIC,GRAND JUNCTION,CO,US,24780,0.3,0.0,39.066639,-108.745389,"GRAND VALLEY PUBLIC RADIO, INC."
K201HV,201,88.1,FX,LIC,JANSEN,CO,US,78198,0.01,0.0,37.23725,-104.514972,UNKNOWN
KVOD,201,88.1,FM,LIC,LAKEWOOD,CO,US,83535,4.4,238.0,39.732778,-105.236111,"PUBLIC BROADCASTING OF COLORADO, INC."
K201HJ,201,88.1,FX,LIC,LINCOLN PARK,CO,US,106685,0.03,-85.0,38.422222,-105.151944,"EDUCATIONAL COMMUNICATIONS OF COLORADO SPRINGS, INC."
K201EC,201,88.1,FX,LIC,MANITOU SPRINGS,CO,US,18884,0.099,0.0,38.886083,-104.890528,UNKNOWN
KPGS,201,88.1,FM,LIC,PAGOSA SPRINGS,CO,US,123206,1.0,416.0,37.196667,-107.117528,UNKNOWN
KMPZ,201,88.1,FM,LIC,SALIDA,CO,US,175217,0.2,827.0,38.446639,-106.010556,UNKNOWN
K201IP,201,88.1,FX,LIC,STERLING,CO,US,92423,0.075,0.0,40.5325,-103.123278,CSN INTERNATIONAL
WESU,201,88.1,FM,LIC,MIDDLETOWN,CT,US,71537,6.0,11.0,41.553417,-72.657583,UNKNOWN
WMNR,201,88.1,FM,LIC,MONROE,CT,US,43531,5.0,123.0,41.318972,-73.253167,UNKNOWN
WMNR,201,88.1,FM,LIC,MONROE,CT,US,43531,0.175,117.0,41.341639,-73.274444,"TOWN OF MONROE, CONNECTICUT"
WMNR,201,88.1,FM,LIC,MONROE,CT,US,43531,0.33,82.0,41.318972,-73.253167,UNKNOWN
WMHS,201,88.1,FM,LIC,PIKE CREEK,DE,US,90384,0.088,37.0,39.757611,-75.666861,UNKNOWN
WJIS,201,88.1,FM,LIC,BRADENTON,FL,US,54857,100.0,121.0,27.131972,-82.393972,UNKNOWN
WUBA,201,88.1,FM,LIC,IGH SPRINGS,FL,US,175104,0.11,15.0,29.809389,-82.607056,UNKNOWN
WRGP,201,88.1,FM,LIC,OMESTEAD,FL,US,21777,0.165,129.0,25.540361,-80.468389,UNKNOWN
WCRJ,201,88.1,FM,LIC,JACKSONVILLE,FL,US,48390,8.0,194.0,30.276361,-81.563972,"RADIO TRAINING NETWORK, INC."
WHIJ,201,88.1,FM,LIC,OCALA,FL,US,40160,1.25,0.0,29.238028,-82.120917,"RADIO TRAINING NETWORK, INC."
WUWF,201,88.1,FM,LIC,PENSACOLA,FL,US,66570,100.0,0.0,30.403806,-86.99275,THE UNIVERSITY OF WEST FLORIDA
WUWF,201,88.1,FL,LIC,PENSACOLA,FL,US,66570,7.5,0.0,30.543833,-87.220194,UNKNOWN
WEKI,201,88.1,FM,MOD,WEEKI WACHEE,FL,US,768626,5.0,111.0,-276297.434722,-82.528944,"768626            5. kW DA     111. m    126. m        m   N 28 34  55.8  W  82 31  44.2  1031083    CALL COMMUNICATIONS GROUP, INC."
WAYF,201,88.1,FM,LIC,WEST PALM BEACH,FL,US,61507,50.0,0.0,26.589222,-80.212,HOPE MEDIA GROUP
W219DU,201,88.1,FX,MOD,BRUNSWICK,GA,US,92893,0.055,0.0,-267432.216682,-81.496389,92893          0.055 kW          0. m     63. m        m   N 31 12   1.0  W  81 29  47.0  1018698    CSN INTERNATIONAL
W201CC,201,88.1,FX,LIC,BUFORD,GA,US,91293,0.019,66.0,34.105667,-83.930194,CSN INTERNATIONAL
W201DJ,201,88.1,FX,LIC,DOUGLAS,GA,US,152243,0.013,0.0,-120557.383337,-82.891528,152243         0.013 kW       102.3 m    182. m        m   N 31 32  44.7  W  82 53  29.5  1019770    FAMILY FIRST
WNEE,201,88.1,FM,LIC,PATTERSON,GA,US,122086,6.0,49.0,34.012056,-83.29375,UNKNOWN
WLXP,201,88.1,FM,LIC,SAVANNAH,GA,US,81997,5.5,104.0,32.063556,-81.048722,"CHRISTIAN MULTIMEDIA NETWORK, INC."
WRJS,201,88.1,FM,LIC,SOPERTON,GA,US,174547,12.0,0.0,32.355722,-82.618472,"GRACE MISSIONARY BAPTIST CHURCH, INC."
WAYT,201,88.1,FM,LIC,THOMASVILLE,GA,US,61193,17.0,392.0,30.668528,-83.969333,HOPE MEDIA GROUP
WJSP-FM,201,88.1,FM,STA,WARM SPRINGS,GA,US,23927,100.0,0.0,-270771.811111,-84.701028,23927           100. kW DA    461.2 m   723.7 m        m   N 32 51   8.5  W  84 42   3.7  1018795    GEORGIA PUBLIC TELECOMMUNICATIONS COMMISSION
WJSP-FM,201,88.1,FM,LIC,WARM SPRINGS,GA,US,23927,100.0,0.0,32.852361,-84.701028,GEORGIA PUBLIC TELECOMMUNICATIONS COMMISSION
W201DM,201,88.1,FX,MOD,WOODSTOCK,GA,US,122159,1.0,0.0,-287405.983336,-84.453944,"122159           .01 kW          0. m    541. m        m   N 34  3  58.6  W  84 27  14.2             CSN INTERNATIONAL, INC."
W201DM,201,88.1,FX,LIC,WOODSTOCK,GA,US,122159,0.009,0.0,34.066472,-84.453806,UNKNOWN
KHMG,201,88.1,FM,LIC,BARRIGADA,GU,US,26384,8.0,166.0,13.488056,144.831389,HARVEST CHRISTIAN ACADEMY
KCQA,201,88.1,FM,LIC,ANAHOLA,HI,US,767248,0.25,28.0,-279844.466736,-159.333056,"767248          0.25 kW         28. m    107. m        m   N 22 10    57  W 159 19    59             COMMUNITY SERVICE BROADCASTING FOUNDATION, INC."
KLHE,201,88.1,FM,STA,ILO,HI,US,767291,1.6,-34.0,-299317.183778,-155.022778,"767291           1.6 kW        -34. m     38. m        m   N 19 43  45.0  W 155  1  22.0  1026418    K-LOVE, INC."
KLHE,201,88.1,FM,LIC,ILO,HI,US,767291,1.6,-34.0,-271939.183778,-155.022778,"767291           1.6 kW        -34. m     38. m        m   N 19 43  45.0  W 155  1  22.0  1026418    K-LOVE, INC."
KHPR,201,88.1,FM,LIC,ONOLULU,HI,US,26446,39.0,514.0,21.333472,-157.81475,UNKNOWN
KHPR,201,88.1,FM,LIC,ONOLULU,HI,US,26446,3.5,501.0,21.336667,-157.8175,UNKNOWN
KHPR-FM1,201,88.1,FM,LIC,MAKAHA,HI,US,180585,4.0,0.0,21.510444,-158.145556,UNKNOWN
KHPR-FM1,201,88.1,FM,STA,MAKAHA,HI,US,180585,4.0,0.0,-271110.751111,-158.145556,"180585            4. kW DA       0. m   1173. m        m   N 21 30  37.6  W 158  8  44.0             HAWAII PUBLIC RADIO, INC."
KJLI,201,88.1,FM,AMD,BURLINGTON,IA,US,767007,5.0,69.0,-180205.451389,-91.126139,767007            5. kW         69. m    249. m        m   N 40 45   8.9  W  91  7  34.1  1325128    HERITAGE BAPTIST CHURCH
KCVD,201,88.1,FM,LIC,DES MOINES,IA,US,16720,5.2,85.0,-187780.668111,-93.641528,"16720            5.2 kW         85. m    350. m        m   N 41 35   2.0  W  93 38  29.5  1018144    COMMUNITY BROADCASTING, INC."
KICB,201,88.1,FM,LIC,FORT DODGE,IA,US,29059,0.2,40.0,42.490778,-94.2005,UNKNOWN
KQLF,201,88.1,FM,MOD,OTTUMWA,IA,US,85844,11.0,43.0,-270376.736389,-92.409639,"85844            11. kW         43. m    276. m        m   N 41  2   2.1  W  92 24  34.7             COMMUNITY BROADCASTING, INC."
KOIA,201,88.1,FM,LIC,STORM LAKE,IA,US,177197,6.0,0.0,42.668306,-94.993333,"SAINT GABRIEL COMMUNICATIONS, LTD"
KBBG,201,88.1,FM,LIC,WATERLOO,IA,US,597,9.5,47.0,42.512472,-92.3235,UNKNOWN
KTFY,201,88.1,FM,LIC,BUHL,ID,US,91839,60.0,199.0,42.729917,-114.419194,"IDAHO CONFERENCE OF SEVENTH-DAY ADVENTISTS, INC."
K201JC,201,88.1,FX,LIC,CHALLIS,ID,US,6327,0.1,0.0,-252122.450028,-114.090222,6327             0.1 kW          0. m  2605.6 m        m   N 44 33  08.9  W 114 05  24.8             IDAHO STATE BOARD OF EDUCATION
KRRB,201,88.1,FM,LIC,KUNA,ID,US,88927,45.0,298.0,43.620694,-117.210694,UNKNOWN
K201IG,201,88.1,FX,LIC,REXBURG,ID,US,152310,0.17,0.0,43.799361,-111.776361,IDAHO STATE UNIVERSITY
WCSW,201,88.1,FM,LIC,ARROWSMITH,IL,US,768271,0.1,96.0,-239397.516694,-88.553889,768271           0.1 kW         96. m    338. m        m   N 40 28  38.0  W  88 33  14.0  1014818    2820 COMMUNICATIONS INC
WESN,201,88.1,FM,LIC,BLOOMINGTON,IL,US,28319,0.12,30.0,40.491139,-88.993667,UNKNOWN
WWTG,201,88.1,FM,LIC,CARPENTERSVILLE,IL,US,93049,2.0,33.0,42.105861,-88.377306,CARY GROVE ADVENTIST FELLOWSHIP
WZGL,201,88.1,FM,LIC,CHARLESTON,IL,US,83381,2.1,0.0,39.47725,-88.140306,UNKNOWN
WCRX,201,88.1,FM,LIC,CHICAGO,IL,US,12424,0.1,71.0,-216981.066694,-87.624861,12424            0.1 kW DA      71. m    250. m        m   N 41 52  27.9  W  87 37  29.5             COLUMBIA COLLEGE
WBMF,201,88.1,FM,LIC,CRETE,IL,US,89339,0.09,114.0,41.421417,-87.644222,"FAMILY WORSHIP CENTER CHURCH, INC."
WNLD,201,88.1,FM,LIC,DECATUR,IL,US,28294,1.0,93.0,39.80975,-88.992028,UNIVERSITY OF NORTHWESTERN - ST. PAUL
WAXR,201,88.1,FM,LIC,GENESEO,IL,US,86861,3.0,98.0,41.47975,-90.269,AMERICAN FAMILY ASSOCIATION
WIHM-FM,201,88.1,FM,LIC,ARRISBURG,IL,US,175887,4.8,0.0,37.7175,-88.543611,COVENANT NETWORK
W201BL,201,88.1,FX,LIC,JACKSONVILLE,IL,US,83550,0.027,0.0,39.721722,-90.195944,"FAMILY WORSHIP CENTER CHURCH, INC."
WLTL,201,88.1,FM,LIC,LA GRANGE,IL,US,39369,0.18,42.0,41.812528,-87.880889,UNKNOWN
WLRA,201,88.1,FM,LIC,LOCKPORT,IL,US,37190,0.14,40.0,41.602806,-88.080333,LEWIS UNIVERSITY
WPTH,201,88.1,FM,LIC,OLNEY,IL,US,50292,2.9,61.0,38.697278,-88.036972,"VCY AMERICA, INC."
WPTH,201,88.1,FM,STA,OLNEY,IL,US,50292,2.9,61.0,-277913.200806,-88.036972,"50292            2.9 kW         61. m    205. m        m   N 38 41  50.2  W  88  2  13.1  1012293    VCY AMERICA, INC."
WLWJ,201,88.1,FM,LIC,PETERSBURG,IL,US,89735,6.0,100.0,40.001444,-89.697056,"GOOD NEWS RADIO, INC."
WTZI,201,88.1,FM,LIC,ROSEMONT,IL,US,173970,0.3,22.0,41.955583,-87.867278,RADIOED
WSOG,201,88.1,FM,LIC,SPRING VALLEY,IL,US,91823,4.0,80.0,41.29225,-89.133139,"SPIRIT EDUCATIONAL ASSOCIATION, INC."
WLWX,201,88.1,FM,MOD,WHEATON,IL,US,66499,0.25,41.0,-259104.316736,-88.094917,"66499           0.25 kW DA      41. m    265. m        m   N 41 52  15.2  W  88  5  41.7             K-LOVE, INC."
WLWX,201,88.1,FM,LIC,WHEATON,IL,US,66499,0.25,43.0,41.869194,-88.098944,UNKNOWN
WNTH,201,88.1,FM,LIC,WINNETKA,IL,US,6052,0.047,46.0,-131512.86668,-87.719028,6052           0.047 kW DA      46. m    231. m        m   N 42  5  38.9  W  87 43   8.5             BOARD OF EDUCATION NEW TRIER TOWNSHIP DISTRICT 203
WVPE,201,88.1,FM,LIC,ELKHART,IN,US,19365,11.5,304.0,41.613667,-86.188889,ELKHART COMMUNITY SCHOOLS
WMBL,201,88.1,FM,LIC,MITCHELL,IN,US,84103,1.0,122.0,38.763917,-86.520806,UNKNOWN
WNAS,201,88.1,FM,LIC,NEW ALBANY,IN,US,48372,2.85,1.0,38.298944,-85.812444,UNKNOWN
WKRY,201,88.1,FM,LIC,VERSAILLES,IN,US,91416,0.5,92.0,39.068389,-85.266083,GOOD SHEPHERD RADIO INC.
W201BO,201,88.1,FX,LIC,VINCENNES,IN,US,83658,0.013,0.0,38.683944,-87.435583,BETHEL BAPTIST CHURCH
WSRC,201,88.1,FM,LIC,WAYNETOWN,IN,US,92984,17.0,119.0,40.150028,-86.903889,"CALVARY CHAPEL OF CRAWFORDSVILLE, INC."
K201JF,201,88.1,FX,LIC,BELOIT,KS,US,87483,0.25,37.0,-269526.050069,-98.128389,87483           0.25 kW         37. m    482. m        m   N 39 24   8.0  W  98  7  42.2             AMERICAN FAMILY ASSOCIATION
KZCK,201,88.1,FM,LIC,COLBY,KS,US,175547,2.0,109.0,39.351111,-101.054056,"THE PRAISE NETWORK, INC."
KBTL,201,88.1,FM,LIC,EL DORADO,KS,US,83259,0.4,28.0,37.804472,-96.884194,BUTLER COUNTY COMMUNITY COLLEGE
KRTT,201,88.1,FM,LIC,GREAT BEND,KS,US,173828,0.9,39.0,38.362778,-98.76425,UNKNOWN
KVDM,201,88.1,FM,LIC,AYS,KS,US,177158,2.5,82.0,38.958056,-99.352222,"DIVINE MERCY RADIO, INC."
KJVL,201,88.1,FM,LIC,UTCHINSON,KS,US,174370,0.57,57.0,38.054444,-97.930889,"GREAT PLAINS CHRISTIAN RADIO, INC."
KBCU,201,88.1,FM,LIC,NORTH NEWTON,KS,US,4987,0.15,17.0,38.073889,-97.343361,UNKNOWN
KJTY,201,88.1,FM,LIC,TOPEKA,KS,US,32368,75.0,234.0,39.039167,-95.449972,INTENTIONAL LIFE MEDIA
KLCM,201,88.1,FM,LIC,ULYSSES,KS,US,766517,0.3,0.0,-227723.283417,-101.357639,766517           0.3 kW         10. m   941.1 m        m   N 37 35  29.8  W 101 21  27.5             LIBERTAD EN CRISTO MINISTRIES
WAYD,201,88.1,FM,LIC,AUBURN,KY,US,93017,1.0,113.0,36.960333,-86.546944,HOPE MEDIA GROUP
WTRT,201,88.1,FM,LIC,BENTON,KY,US,88122,2.3,0.0,36.810028,-88.359194,"PENNYRILE CHRISTIAN COMMUNITY, INC."
W201DD,201,88.1,FX,LIC,CENTRAL CITY,KY,US,147296,0.027,0.0,-111124.933341,-87.108306,147296         0.027 kW        58.9 m    194. m        m   N 37 17  30.1  W  87  6  29.9             HOPE MEDIA GROUP
WDFB-FM,201,88.1,FM,LIC,DANVILLE,KY,US,1199,0.17,100.0,37.596167,-84.838556,UNKNOWN
WUIC,201,88.1,FM,LIC,ARLAN,KY,US,762690,2.5,440.0,-281275.500694,-83.376944,"762690           2.5 kW DA     440. m    993. m        m   N 36 48     5  W  83 22    37             TORSTRICK MINISTRIES, INC."
WTRL,201,88.1,FM,LIC,ODGENVILLE,KY,US,767558,75.0,86.0,-260527.633542,-85.688056,767558           .75 kW         86. m    325. m        m   N 37 28  55.0  W  85 41  17.0  1063909    FREEDOM'S WAY ASSEMBLY OF GOD
WRFL,201,88.1,FM,LIC,LEXINGTON,KY,US,54586,7.9,87.0,38.038694,-84.504389,"BOARD OF TRUSTEES, UNIVERSITY OF KENTUCKY"
WEKM-FM,201,88.1,FM,LIC,MAYSVILLE,KY,US,763940,2.95,68.0,-270699.334153,-83.812917,763940          2.95 kW         68. m    311. m        m   N 38 41  15.3  W  83 48  46.5  1265038    EASTERN KENTUCKY UNIVERSITY
WAXG,201,88.1,FM,LIC,MOUNT STERLING,KY,US,82988,0.3,53.0,38.060917,-83.955472,AMERICAN FAMILY ASSOCIATION
WKVY,201,88.1,FM,LIC,SOMERSET,KY,US,93774,4.0,0.0,37.07675,-84.810778,"K-LOVE, INC."
KAYT,201,88.1,FM,LIC,JENA,LA,US,18556,70.0,307.0,31.565444,-92.550139,"BLACK MEDIA WORKS, INC."
K201FO,201,88.1,FX,LIC,JENNINGS,LA,US,92353,0.25,0.0,30.191861,-92.621528,CSN INTERNATIONAL
KPAQ,201,88.1,FM,LIC,PLAQUEMINE,LA,US,86794,90.0,91.0,30.261583,-91.311222,AMERICAN FAMILY ASSOCIATION
WMBR,201,88.1,FM,LIC,CAMBRIDGE,MA,US,64683,0.64,92.0,-162582.050178,-71.085528,64683           0.64 kW DA      92. m    110. m        m   N 42 21  42.1  W  71  5   7.9  1313623    TECHNOLOGY BROADCASTING CORPORATION
WSBR,201,88.1,FM,LIC,LEE,MA,US,768412,0.26,-112.0,-274565.866739,-73.252222,"768412          0.26 kW       -112. m    335. m        m   N 42 16    59  W  73 15     8             PITTSFIELD COMMUNITY CABLE BROADCASTING, INC"
WJFE,201,88.1,FM,LIC,NANTUCKET,MA,US,767390,0.35,54.0,-271462.833431,-70.139722,"767390          0.35 kW         54. m     55. m        m   N 41 17   6.0  W  70  8  23.0  1006316    NANTUCKET PUBLIC RADIO, INC."
WFHL,201,88.1,FM,LIC,NEW BEDFORD,MA,US,87375,0.3,41.0,41.637611,-70.871417,"NEW BEDFORD CHRISTIAN RADIO, INC."
WCHC,201,88.1,FM,LIC,WORCESTER,MA,US,65560,0.1,-2.0,42.237583,-71.808111,UNKNOWN
WYPR,201,88.1,FM,LIC,BALTIMORE,MD,US,65753,15.5,0.0,39.3315,-76.657472,WYPR
WYPF,201,88.1,FM,LIC,FREDERICK,MD,US,32360,1.0,0.0,39.492056,-77.499722,"WYPR LICENSE HOLDING, LLC"
WGWS,201,88.1,FM,LIC,ST. MARY'S CITY,MD,US,172973,1.1,53.0,38.145417,-76.372444,"CSN INTERNATIONAL, INC."
WGWS,201,88.1,FM,STA,ST. MARY'S CITY,MD,US,172973,1.1,53.0,-273485.883639,-76.372444,"172973           1.1 kW         53. m     54. m        m   N 38  8  43.5  W  76 22  20.8  1274421    CSN INTERNATIONAL, INC."
WMEY,201,88.1,FM,LIC,BOWDOIN,ME,US,123284,50.0,64.0,44.107861,-69.924222,UNKNOWN
WMEK,201,88.1,FM,LIC,KENNEBUNKPORT,ME,US,171239,18.0,187.0,-207671.988333,-70.800639,171239           18. kW DA     187. m    297. m        m   N 43 25   5.2  W  70 48   2.3  1200480    WORD RADIO EDUCATIONAL FOUNDATION
W201CF,201,88.1,FX,LIC,BALDWIN,MI,US,91284,0.055,0.0,43.900556,-85.7595,UNKNOWN
WODS-LP,201,88.1,FL,AMD,BIG RAPIDS,MI,US,788559,0.1,12.0,-245903.650028,-85.494722,788559           0.1 kW         12. m    327. m        m   N 43 40    57  W  85 29    41             BIG RAPIDS WIRELESS INC
WBFH,201,88.1,FM,LIC,BLOOMFIELD HILLS,MI,US,5872,0.36,51.0,-184304.866767,-83.286056,5872            0.36 kW DA      51. m    308. m        m   N 42 34  40.1  W  83 17   9.8             BLOOMFIELD HILLS SCHOOL DISTRICT
WBLW,201,88.1,FM,LIC,GAYLORD,MI,US,91339,5.0,260.0,45.17,-84.751139,"GRACE BAPTIST CHURCH OF GAYLORD, MICHIGAN"
WBLW,201,88.1,FM,MOD,GAYLORD,MI,US,91339,5.0,257.0,-278773.318056,-84.751111,"91339             5. kW DA     257. m    586. m        m   N 45 10  12.0  W  84 45   4.0  1000437    GRACE BAPTIST CHURCH OF GAYLORD, MICHIGAN"
WHYT,201,88.1,FM,LIC,GOODLAND TOWNSHIP,MI,US,84187,0.4,177.0,43.175028,-83.067167,SMILE FM
WSFP,201,88.1,FM,LIC,ARRISVILLE,MI,US,121959,18.0,143.0,44.703333,-83.524139,MICHIGAN COMMUNITY RADIO
WHPR-FM,201,88.1,FM,LIC,IGHLAND PARK,MI,US,54428,0.012,32.0,42.408083,-83.091583,UNKNOWN
WLGH,201,88.1,FM,LIC,LEROY TOWNSHIP,MI,US,78460,6.7,174.0,42.705583,-84.357472,SMILE FM
WSMF,201,88.1,FM,LIC,MONROE,MI,US,89277,1.2,41.0,41.918917,-83.376028,UNKNOWN
WSDP,201,88.1,FM,LIC,PLYMOUTH,MI,US,52840,0.3,16.0,42.349472,-83.495778,PLYMOUTH-CANTON COMMUNITY SCHOOLS
WYCE,201,88.1,FM,LIC,WYOMING,MI,US,24773,10.0,50.0,42.911972,-85.683361,UNKNOWN
KGPL,201,88.1,FM,LIC,CROOKSTON,MN,US,766429,25.0,26.0,-245023.816736,-96.590583,"766429           .25 kW         26. m    294. m        m   N 47 46  57.1  W 096 35  26.1             WE HAVE THIS HOPE CHRISTIAN RADIO, INC."
KAWD,201,88.1,FM,LIC,DETROIT LAKES,MN,US,766459,25.0,-4.0,-274847.316736,-95.829194,"766459           .25 kW         -4. m    425. m        m   N 46 49  42.8  W 095 49  45.1             CHRISTIAN MEDIA, INC."
KDGR,201,88.1,FM,LIC,GRAND RAPIDS,MN,US,763944,5.0,55.0,-290579.401389,-93.547444,763944            5. kW         55. m    458. m        m   N 47 13   5.5  W  93 32  50.8  1224837    UNIVERSITY OF NORTHWESTERN - ST. PAUL
K201BW,201,88.1,FX,LIC,LA CRESCENT,MN,US,42952,0.062,128.0,43.757583,-91.290056,UNKNOWN
KJCA,201,88.1,FM,LIC,MARSHALL,MN,US,762423,0.26,51.0,-271989.050072,-95.773639,762423          0.26 kW         51. m    405. m        m   N 44 28  11.6  W  95 46  25.1  1235852    MINN-IOWA CHRISTIAN BROADCASTING
WAJC,201,88.1,FM,LIC,NEWPORT,MN,US,174134,5.52,22.0,44.720778,-93.032139,UNKNOWN
KRLX,201,88.1,FM,LIC,NORTHFIELD,MN,US,8867,0.1,5.0,44.460778,-93.156028,UNKNOWN
KRFI,201,88.1,FM,LIC,REDWOOD FALLS,MN,US,173553,0.36,0.0,44.541083,-95.183056,MINNESOTA PUBLIC RADIO
KBQA,201,88.1,FM,LIC,ROCHESTER,MN,US,767527,4.0,44.0,-284251.117778,-92.619833,"767527            4. kW         44. m    423. m        m   N 43 54  18.6  W  92 37  11.4             ONE DAY CHURCH PROJECT, INC."
KVSC,201,88.1,FM,LIC,ST. CLOUD,MN,US,62112,16.5,136.0,45.516611,-94.231361,UNKNOWN
KRLP,201,88.1,FM,LIC,WINDOM,MN,US,91900,0.6,118.0,43.884111,-95.1825,"K-LOVE, INC."
KLFC,201,88.1,FM,LIC,BRANSON,MO,US,70362,1.8,119.0,36.551722,-93.238222,UNKNOWN
KZGM,201,88.1,FM,LIC,CABOOL,MO,US,172919,12.5,135.0,37.120889,-92.002667,"REAL COMMUNITY RADIO NETWORK, INC."
KLWL,201,88.1,FM,LIC,CHILLICOTHE,MO,US,176981,0.8,103.0,39.815028,-93.588556,CSN INTERNATIONAL
KCOU,201,88.1,FM,LIC,COLUMBIA,MO,US,28513,0.43,44.0,38.940028,-92.321278,UNKNOWN
KFCJ,201,88.1,FM,LIC,FIDELITY,MO,US,766494,29.0,59.0,-297593.908056,-94.134194,"766494           29. kW DA      59. m    408. m        m   N 37  4  39.9  W  94  8   3.1  1209366    COMMUNITY BROADCASTING, INC."
K201GD,201,88.1,FX,LIC,KIRKSVILLE,MO,US,93850,0.01,0.0,40.17475,-92.555194,"FAMILY WORSHIP CENTER CHURCH, INC."
KLJT,201,88.1,FM,LIC,ST. LOUIS,MO,US,17380,41.0,232.0,-286332.678056,-90.436722,"17380            41. kW        232. m    405. m        m   N 38 25   4.7  W  90 26  12.2  1007157    GATEWAY CREATIVE BROADCASTING, INC."
KLJT,201,88.1,FM,LIC,ST.,MO,US,17380,21.0,188.0,-285969.6725,-90.436722,"17380            21. kW        188. m    361. m        m   N 38 25   4.7  W  90 26  12.2             GATEWAY CREATIVE BROADCASTING, INC."
KHJR,201,88.1,FM,LIC,ST. THOMAS,MO,US,171236,2.5,0.0,38.552611,-92.204194,COVENANT NETWORK
KRNM,201,88.1,FM,LIC,CHALAN KANOA-SAIPAN,MP,US,49570,1.8,38.0,15.151389,145.719722,UNKNOWN
WAIT,201,88.1,FM,LIC,CLARKSDALE,MS,US,765274,0.32,22.0,-284139.566756,-90.573083,765274          0.32 kW         22. m     69. m        m   N 34 12   1.1  W  90 34  23.1             OPEN SKY RADIO CORP
WDSW-LP,201,88.1,FL,LIC,CLEVELAND,MS,US,193426,0.1,0.0,33.744556,-90.735639,UNKNOWN
WOLM,201,88.1,FM,LIC,D'IBERVILLE,MS,US,93359,1.0,66.0,30.443806,-88.848361,"RADIO MARIA, INC."
WYJL,201,88.1,FM,LIC,GRENADA,MS,US,767759,4.5,61.0,-280381.984583,-89.648417,767759           4.5 kW         61. m    152. m        m   N 33 56  43.4  W  89 38  54.3  1203393    ELIJAH RADIO
WURC,201,88.1,FM,LIC,OLLY SPRINGS,MS,US,58271,3.0,83.0,34.781472,-89.447028,"RUST COLLEGE, INC."
WMAW-FM,201,88.1,FM,LIC,MERIDIAN,MS,US,43188,100.0,320.0,32.138472,-89.093389,MISSISSIPPI AUTHORITY FOR EDUCATIONAL TV
KGFJ,201,88.1,FM,LIC,BELT,MT,US,172645,0.73,0.0,47.159417,-111.011611,CSN INTERNATIONAL
KOFK-FM,201,88.1,FM,LIC,BOZEMAN,MT,US,172286,0.5,213.0,45.638806,-111.266333,GUILD OF ST. PETER EDUCATIONAL ASSOCIATION
KFGL,201,88.1,FM,LIC,BUTTE,MT,US,767055,2.0,-166.0,-283378.250556,-112.512306,767055            2. kW       -166. m   1732. m        m   N 45 57   2.5  W 112 30  44.3  1323672    OLD FASHION BAPTIST CHURCH OF BUTTE
K201FG,201,88.1,FX,LIC,CULBERTSON,MT,US,92314,0.075,0.0,48.199194,-104.5255,CSN INTERNATIONAL
KGVA,201,88.1,FM,LIC,FORT BELKNAP AGENCY,MT,US,22805,95.0,243.0,48.188306,-108.710694,UNKNOWN
K201IN,201,88.1,FX,LIC,AMILTON,MT,US,78524,0.25,0.0,46.268806,-114.176472,CSN INTERNATIONAL
K201EY,201,88.1,FX,LIC,KALISPELL,MT,US,91808,0.034,0.0,48.176056,-114.350139,CSN INTERNATIONAL
KXEM,201,88.1,FM,LIC,ROUNDUP,MT,US,176691,3.5,142.0,46.250778,-108.484278,UNKNOWN
K201CO,201,88.1,FX,LIC,SHELBY,MT,US,27121,0.25,0.0,48.503583,-111.866944,UNKNOWN
KIYO,201,88.1,FM,LIC,ST. MARY,MT,US,763578,75.0,427.0,-269021.300208,-113.386306,763578           .75 kW        427. m   2192. m        m   N 48 40   7.8  W 113 23  10.7             BLACKFEET TRIBE
KTFZ,201,88.1,FM,LIC,THOMPSON FALLS,MT,US,763553,0.545,317.0,-219770.883485,-115.318056,763553         0.545 kW        317. m   1570. m        m   N 47 32  27.0  W 115 19   5.0  1258591    THE UNIVERSITY OF MONTANA
WCQS,201,88.1,FM,LIC,ASHEVILLE,NC,US,71923,1.9,356.0,-159506.717194,-82.673722,71923            1.9 kW DA     356. m   1100. m        m   N 35 35  23.3  W  82 40  25.4             WESTERN NORTH CAROLINA PUBLIC RADIO
WWFJ,201,88.1,FM,LIC,EAST FAYETTEVILLE,NC,US,176574,2.0,0.0,34.960639,-78.769333,UNKNOWN
WJYJ,201,88.1,FM,LIC,ICKORY,NC,US,53091,26.5,77.0,35.72625,-81.147583,"POSITIVE ALTERNATIVE RADIO, INC."
WGHW,201,88.1,FM,LIC,LOCKWOODS FOLLY TOWN,NC,US,89986,52.0,0.0,34.097861,-77.971444,"PEACE BAPTIST CHURCH OF WILMINGTON, NC"
DWOPR,201,88.1,FM,MOD,MADISON,NC,US,173562,14.0,35.0,-220871.700039,-79.928417,173562           .14 kW         35. m    261. m        m   N 36 26  06.1  W  79 55  42.3             CHURCH PLANTERS OF AMERICA
WCQS,201,88.1,FM,AMD,MARS HILL,NC,US,71923,1.9,356.0,-233362.717194,-82.673722,71923            1.9 kW DA     356. m   1100. m        m   N 35 35  23.3  W  82 40  25.4             WESTERN NORTH CAROLINA PUBLIC RADIO
W201DI,201,88.1,FX,LIC,MONROE,NC,US,122755,0.17,23.0,35.009861,-80.580611,UNKNOWN
WMTG-LP,201,88.1,FL,LIC,MOUNT GILEAD,NC,US,135479,0.027,0.0,35.219028,-80.0045,UNKNOWN
WKNC-FM,201,88.1,FM,LIC,RALEIGH,NC,US,49160,25.0,80.0,35.787639,-78.670278,NORTH CAROLINA STATE UNIVERSITY
WYTR,201,88.1,FM,LIC,ROBBINS,NC,US,172166,4.7,53.0,35.559861,-79.683917,TRUTH MEDIA INCORPORATED
WKDH,201,88.1,FM,LIC,RODANTHE,NC,US,762575,0.5,27.0,-286462.583472,-75.461917,762575           0.5 kW         27. m     33. m        m   N 35 35  5.27  W  75 27  42.9             SEACOAST RADIO NETWORK CORP
WGML,201,88.1,FM,LIC,VANCEBORO,NC,US,765407,7.0,149.0,-231621.785278,-77.044722,"765407            7. kW        149. m    157. m        m   N 35 29  15.0  W  77  2  41.0  1007798    PATHWAY CHRISTIAN ACADEMY, INC."
K201FN,201,88.1,FX,AMD,DICKINSON,ND,US,92539,0.062,0.0,-248789.316684,-102.730194,92539          0.062 kW       175.2 m    928. m        m   N 46 55   8.0  W 102 43  48.7             CSN INTERNATIONAL
K201FN,201,88.1,FX,LIC,DICKINSON,ND,US,92539,0.062,0.0,46.918889,-102.730194,UNKNOWN
KPPP-LP,201,88.1,FL,LIC,FARGO,ND,US,193229,0.022,0.0,46.874417,-96.784528,THE PEOPLES PRESS PROJECT
KJKR,201,88.1,FM,LIC,JAMESTOWN,ND,US,177249,4.0,1.0,46.91025,-98.708139,UNKNOWN
KFLK,201,88.1,FM,LIC,MINOT,ND,US,767009,100.0,133.0,-259157.511111,-101.318611,767009          100. kW        133. m    661. m        m   N 48 12  56.0  W 101 19   7.0  1046243    CALVARY CHAPEL MINOT
K209FS,201,88.1,FX,AMD,COLUMBUS,NE,US,47960,0.039,0.0,-220584.333344,-97.405833,47960          0.039 kW         30. m   490.1 m        m   N 41 27  15.0  W  97 24  21.0  1026738    NEBRASKA EDUCATIONAL TELECOMMUNICATIONS COMMISSION
KCFD,201,88.1,FM,LIC,CRAWFORD,NE,US,176723,0.1,-63.0,42.684806,-103.414833,UNKNOWN
KCNT,201,88.1,FM,LIC,ASTINGS,NE,US,9969,1.2,56.0,-179867.150333,-98.330917,9969             1.2 kW         56. m    630. m        m   N 40 34  42.8  W  98 19  51.3             CENTRAL COMMUNITY COLLEGE
KJYS,201,88.1,FM,LIC,MCCOOK,NE,US,767455,0.5,66.0,-229314.916806,-100.6525,"767455           0.5 kW         66. m    850. m        m   N 40 12  46.0  W 100 39   9.0  1258796    TRI-STATE BROADCASTING ASSOCIATION, INC"
KFHC,201,88.1,FM,LIC,PONCA,NE,US,90282,8.8,0.0,42.463333,-96.6175,ST. GABRIEL COMMUNICATIONS LTD.
KMLV,201,88.1,FM,LIC,RALSTON,NE,US,85846,59.0,390.0,41.311111,-96.02725,"K-LOVE, INC."
KEJS,201,88.1,FM,LIC,SARGENT,NE,US,768056,1.2,119.0,-232450.933667,-99.421139,"768056           1.2 kW        119. m    869. m        m   N 41 29  53.9  W  99 25  16.1  1287521    VSS CATHOLIC COMMUNICATIONS, INC."
WYGG,201,88.1,FM,LIC,ASBURY PARK,NJ,US,19867,0.78,0.0,40.217333,-74.010111,UNKNOWN
WZBL,201,88.1,FM,LIC,BARNEGAT LIGHT,NJ,US,176010,0.1,13.0,39.750944,-74.119278,UNKNOWN
WTHA,201,88.1,FM,LIC,BERLIN,NJ,US,48486,0.08,287.0,39.728167,-74.843778,BUX-MONT EDUCATIONAL RADIO ASSOCIATION
WJPG,201,88.1,FM,LIC,CAPE MAY COURT HOUSE,NJ,US,86859,1.5,129.0,39.129833,-74.787944,"MARANATHA MINISTRIES/JOY COMMUNICATIONS, INC."
WDNJ,201,88.1,FM,LIC,OPATCONG,NJ,US,121770,0.5,118.0,40.940389,-74.612944,"YOUNGSHINE MEDIA, INC."
WNJT-FM,201,88.1,FM,LIC,TRENTON,NJ,US,48488,0.11,210.0,40.282889,-74.686,NEW YORK PUBLIC RADIO
KCCO,201,88.1,FM,LIC,CLAYTON,NM,US,766778,0.25,75.0,-275023.633403,-103.188333,766778          0.25 kW         75. m   1598. m        m   N 36 27  29.0  W 103 11  18.0  1046335    KLMX EDUCATIONAL FOUNDATION
KYHA,201,88.1,FM,LIC,CLOVIS,NM,US,762138,1.0,62.0,-256476.300278,-103.211111,"762138            1. kW         62. m   1373. m        m   N 34 26    20  W 103 12    40  1022461    BIBLE BROADCASTING NETWORK, INC."
KENE,201,88.1,FM,LIC,EAGLE TAIL,NM,US,174721,1.25,431.0,36.683083,-104.414417,UNKNOWN
KUSW,201,88.1,FM,LIC,FLORA VISTA,NM,US,124178,4.1,202.0,36.671111,-108.232306,"KUTE, INC."
KGGA,201,88.1,FM,LIC,GALLUP,NM,US,94220,1.0,5.0,35.540861,-108.743972,"BOARD OF EDUCATION OF THE CITY OF ALBUQUERQUE, NM"
KIDS,201,88.1,FM,LIC,GRANTS,NM,US,93047,0.1,0.0,35.119194,-107.901167,"BOARD OF EDUCATION OF THE CITY OF ALBUQUERQUE, NM"
KQTO,201,88.1,FM,LIC,URLEY,NM,US,173481,2.0,463.0,32.862,-108.241694,UNKNOWN
K201CC,201,88.1,FX,LIC,LAS CRUCES,NM,US,10927,0.25,0.0,32.260639,-106.767222,UNKNOWN
KENP,201,88.1,FM,LIC,LAS VEGAS,NM,US,768910,0.7,-2.0,-272064.166861,-105.236944,768910           0.7 kW         -2. m   2093. m        m   N 35 37  59.1  W 105 14    13             EASTERN NEW MEXICO UNIVERSITY
K201IW,201,88.1,FX,LIC,LAS VEGAS,NM,US,76186,0.041,0.0,35.603639,-105.258889,UNKNOWN
KOFJ,201,88.1,FM,LIC,MOUNTAIN VIEW,NM,US,768390,0.195,105.0,-282650.500054,-108.313333,768390         0.195 kW        105. m   2390. m        m   N 35 02 32.26  W 108 18    48             PEOPLE TO PEOPLE
KNHO,201,88.1,FM,LIC,ROSWELL,NM,US,768312,35.0,42.0,-280159.200097,-104.624583,"768312           .35 kW         42. m   1202. m        m   N 33 23  36.2  W 104 37  28.5  1022467    AMERICAN CHRISTIAN RADIO, INC."
KNMA,201,88.1,FM,LIC,TULAROSA,NM,US,122932,3.34,0.0,32.829806,-105.886639,UNKNOWN
KTQQ,201,88.1,FM,LIC,ELKO,NV,US,175328,0.23,552.0,40.700194,-115.902833,UNKNOWN
KCEP,201,88.1,FM,LIC,LAS VEGAS,NV,US,50390,10.0,364.0,36.008583,-115.006917,UNKNOWN
K201HX,201,88.1,FX,LIC,MESQUITE,NV,US,48357,0.25,0.0,36.818056,-114.062139,UNKNOWN
K201HO,201,88.1,FX,LIC,RENO,NV,US,21091,0.075,0.0,39.216278,-119.791556,UNKNOWN
K201BF,201,88.1,FX,LIC,SCOTTY'S JUNCTION,NV,US,49874,0.11,461.0,37.299917,-117.259222,UNKNOWN
K201FF,201,88.1,FX,LIC,WINNEMUCCA,NV,US,92129,0.01,0.0,41.0085,-117.770389,UNKNOWN
WLHV,201,88.1,FM,LIC,ANNANDALE-ON-HUDSON,NY,US,173238,0.91,0.0,42.098694,-73.730111,UNKNOWN
WXBA,201,88.1,FM,LIC,BRENTWOOD,NY,US,6726,0.18,29.0,40.772028,-73.254833,UNKNOWN
WCWP,201,88.1,FM,LIC,BROOKVILLE,NY,US,38332,0.1,58.0,40.81675,-73.5965,UNKNOWN
W201BE,201,88.1,FX,LIC,BUFFALO,NY,US,76995,0.08,0.0,-214126.250022,-78.785028,"76995           0.08 kW DA       0. m   230.8 m        m   N 42 55  56.1  W  78 47   6.1  1240109    PRIORITY RADIO, INC."
WSLZ,201,88.1,FM,LIC,CAPE VINCENT,NY,US,176912,2.0,92.0,44.116167,-76.338833,THE ST. LAWRENCE UNIVERSITY
WVVC-FM,201,88.1,FM,LIC,DOLGEVILLE,NY,US,171935,0.15,206.0,43.102583,-74.940444,NORTHEAST GOSPEL BROADCASTING INC.
WMTQ,201,88.1,FM,LIC,ELMIRA,NY,US,175837,0.09,372.0,42.106111,-76.871111,HOLY FAMILY COMMUNICATIONS
WSQN,201,88.1,FM,LIC,GREENE,NY,US,171732,4.5,182.0,42.437,-75.5135,UNKNOWN
W201CD,201,88.1,FX,LIC,ITHACA,NY,US,88637,0.245,1.0,42.445889,-76.537139,UNKNOWN
W201CD,201,88.1,FX,MOD,ITHACA,NY,US,88637,0.053,1.0,-221604.283348,-76.450806,"88637          0.053 kW DA       1. m    422. m        m   N 42 25  45.2  W  76 27  02.9             ITHACA COMMUNITY RADIO, INC."
WUBJ,201,88.1,FM,LIC,JAMESTOWN,NY,US,63120,2.7,152.0,42.179778,-79.341167,WESTERN NEW YORK PUBLIC BROADCASTING ASSOCIATION
WGWR,201,88.1,FM,LIC,LIBERTY,NY,US,79020,0.038,246.0,41.801167,-74.784306,UNIVERSITY OF NORTHWESTERN - ST. PAUL
WJZZ,201,88.1,FM,STA,MONTGOMERY,NY,US,89510,0.099,-32.0,-240954.833361,-74.321833,"89510          0.099 kW        -32. m    124. m        m   N 41 27  33.3  W  74 19  18.6             HUDSON VALLEY PUBLIC RADIO, INC."
WJZZ,201,88.1,FM,LIC,MONTGOMERY,NY,US,89510,1.15,0.0,41.477139,-74.268972,"HUDSON VALLEY PUBLIC RADIO, INC."
WXLU,201,88.1,FM,LIC,PERU,NY,US,66428,1.0,341.0,44.573639,-73.674306,UNKNOWN
W201DQ,201,88.1,FX,LIC,UTICA,NY,US,139047,0.01,0.0,43.037583,-75.195444,NORTHEAST GOSPEL BROADCASTING INC
WARY,201,88.1,FM,LIC,VALHALLA,NY,US,71709,0.042,123.0,41.070361,-73.789833,UNKNOWN
WKEL,201,88.1,FM,LIC,WEBSTER,NY,US,20953,15.0,0.0,43.070639,-77.092611,"K-LOVE, INC."
WZIP,201,88.1,FM,LIC,AKRON,OH,US,66613,7.5,250.0,-139949.21875,-81.633778,66613            7.5 kW DA     250. m    570. m        m   N 41  4  58.5  W  81 38   1.6  1018464    THE UNIVERSITY OF AKRON
W201DP,201,88.1,FX,LIC,ASHTABULA,OH,US,74435,0.038,0.0,41.864194,-80.784889,UNKNOWN
WBGU,201,88.1,FM,LIC,BOWLING GREEN,OH,US,6567,0.75,42.0,-152001.450208,-83.6415,6567            0.75 kW         42. m    242. m        m   N 41 22  18.0  W  83 38  29.4  1012127    BOWLING GREEN STATE UNIVERSITY
WYFY,201,88.1,FM,LIC,CAMBRIDGE,OH,US,172915,1.5,44.0,40.027028,-81.552333,"BIBLE BROADCASTING NETWORK, INC."
WDPR,201,88.1,FM,LIC,DAYTON,OH,US,61582,0.78,238.0,39.721167,-84.249944,"DAYTON PUBLIC RADIO, INC."
WWGV,201,88.1,FM,LIC,GROVE CITY,OH,US,91538,14.0,84.0,-1067624.637222,-83.14325,91538            14. kW DA      84. m    327. m        m   N 39 43 16.20  W  83 08  35.7             AMERICAN FAMILY ASSOCIATION
WWGV,201,88.1,FM,LIC,GROVE CITY,OH,US,91538,14.0,84.0,-108134.637222,-83.14325,91538            14. kW DA      84. m    327. m        m   N 39 43  16.2  W  83  8  35.7  1018017    AMERICAN FAMILY ASSOCIATION
WYSB,201,88.1,FM,AMD,NEVADA,OH,US,762652,2.0,83.0,-179609.867222,-83.122278,"762652            2. kW DA      83. m    357. m        m   N 40 50  31.2  W  83  7  20.2  1226341    SIDE BY SIDE, INC."
WHRQ,201,88.1,FM,LIC,SANDUSKY,OH,US,172338,0.38,0.0,41.377222,-82.814444,AVE MARIA COMMUNICATIONS
WBCJ,201,88.1,FM,LIC,SPENCERVILLE,OH,US,64660,3.1,143.0,40.711444,-84.383278,"TAYLOR UNIVERSITY BROADCASTING, INC."
WFGU-LP,201,88.1,FL,LIC,WINCHESTER,OH,US,196773,0.095,0.0,38.983389,-83.626028,UNKNOWN
KCCZ,201,88.1,FM,LIC,BOISE CITY,OK,US,766780,0.25,21.0,-271624.666736,-102.499028,766780          0.25 kW         21. m   1282. m        m   N 36 43  44.6  W 102 29  56.5             KLMX EDUCATIONAL FOUNDATION
KTUA,201,88.1,FM,LIC,COWETA,OK,US,81516,100.0,136.0,36.132028,-96.24,"K-LOVE, INC."
KTUA,201,88.1,FM,STA,COWETA,OK,US,81516,100.0,136.0,-276322.627778,-96.24,"81516           100. kW DA     136. m    384. m        m   N 36  7  55.3  W  96 14  24.0  1218989    K-LOVE, INC."
KJDR,201,88.1,FM,LIC,GUYMON,OK,US,175032,1.0,83.0,36.674194,-101.469611,TOP O TEXAS EDUCATIONAL BROADCASTING FOUNDATION
K201IJ,201,88.1,FX,LIC,UNKNOWN,XX,US,14410,0.205,0.0,36.882833,-94.796333,"DAVID INGLES MINISTRIES CHURCH, INC."
KMSI,201,88.1,FM,LIC,MOORE,OK,US,14436,50.0,0.0,-112022.613889,-97.588611,"14436            50. kW DA     177. m   548.5 m        m   N 35 12   7.0  W  97 35  19.0  1010051    DAVID INGLES MINISTRIES CHURCH, INC."
KMSI,201,88.1,FM,LIC,MOORE,OK,US,14436,12.0,159.0,35.202,-97.588639,"DAVID INGLES MINISTRIES CHURCH, INC."
KKRI,201,88.1,FM,LIC,POCOLA,OK,US,88401,18.5,108.0,35.225083,-94.301333,"K-LOVE, INC."
KWOU,201,88.1,FM,LIC,WOODWARD,OK,US,172867,23.5,0.0,36.375306,-99.475556,THE UNIVERSITY OF OKLAHOMA
KDJC,201,88.1,FM,LIC,BAKER,OR,US,121839,0.775,0.0,45.12375,-117.781028,UNKNOWN
KVZN,201,88.1,FM,UNK,BANDON,OR,US,766729,0.47,424.0,-180219.816797,-124.274167,766729          0.47 kW DA     424. m    670. m        m   N 42 57  31.0  W 124 16  27.0  1057339    COOS COMMONS PROTECTION COUNCIL
KLBR,201,88.1,FM,LIC,BEND,OR,US,89855,5.0,259.0,44.046778,-121.531694,LANE COMMUNITY COLLEGE
K201DV,201,88.1,FX,LIC,BROOKINGS,OR,US,77718,0.023,0.0,41.962611,-124.184528,UNKNOWN
K201BK,201,88.1,FX,LIC,COQUILLE,OR,US,62952,0.005,-56.0,43.183972,-124.188417,UNKNOWN
KWVA,201,88.1,FM,LIC,EUGENE,OR,US,3025,1.0,54.0,44.081778,-123.110639,UNIVERSITY OF OREGON
KWVA,201,88.1,FM,LIC,EUGENE,OR,US,3025,0.024,17.0,44.044,-123.062861,UNKNOWN
KLFO,201,88.1,FM,LIC,FLORENCE,OR,US,88117,0.25,167.0,43.957056,-124.075111,LANE COMMUNITY COLLEGE
KQOC,201,88.1,FM,LIC,GLENEDEN BEACH,OR,US,91191,6.5,317.0,44.756222,-124.049,UNKNOWN
K201DI,201,88.1,FX,LIC,GRANTS PASS,OR,US,81579,0.023,143.0,42.4515,-123.297556,UNKNOWN
KGRI,201,88.1,FM,LIC,LEBANON,OR,US,91560,0.16,770.0,44.482889,-122.583139,UNKNOWN
K201DH,201,88.1,FX,LIC,PENDLETON,OR,US,77128,0.25,64.0,45.694833,-118.841083,UNKNOWN
KMPQ,201,88.1,FM,LIC,ROSEBURG,OR,US,89864,0.95,107.0,43.205944,-123.365083,LANE COMMUNITY COLLEGE
KQHR,201,88.1,FM,LIC,THE DALLES,OR,US,175508,4.0,340.0,45.721778,-121.438389,UNKNOWN
KQHR,201,88.1,FM,LIC,THE DALLES,OR,US,175508,0.12,347.0,45.721778,-121.438389,UNKNOWN
WDIY,201,88.1,FM,LIC,ALLENTOWN,PA,US,36992,0.3,257.0,40.564556,-75.439917,LEHIGH VALLEY COMMUNITY BROADCASTERS ASSOCIATION
WMLD,201,88.1,FM,LIC,DUSHORE,PA,US,177289,0.1,0.0,41.525889,-76.409361,UNKNOWN
WEFR,201,88.1,FM,LIC,ERIE,PA,US,20975,0.63,131.0,41.966444,-80.110889,"LOAM MEDIA, INC."
WXTC,201,88.1,FM,LIC,GREENVILLE,PA,US,172901,1.6,-2.0,41.414194,-80.380333,UNKNOWN
WZXM,201,88.1,FM,LIC,HARRISBURG,PA,US,66520,0.54,32.0,40.262306,-76.886083,UNKNOWN
WHHN,201,88.1,FM,LIC,OLLIDAYSBURG,PA,US,91685,0.85,0.0,40.488694,-78.355278,"RADIO MARIA, INC."
W201DO,201,88.1,FX,LIC,MILFORD,PA,US,156320,0.055,0.0,41.336194,-74.795417,UNKNOWN
WKGO,201,88.1,FM,LIC,MURRYSVILLE,PA,US,26527,1.0,92.0,40.520056,-79.657806,UNKNOWN
WBGM,201,88.1,FM,LIC,NEW BERLIN,PA,US,43663,0.55,127.0,40.890917,-76.998028,UNKNOWN
WPEB,201,88.1,FM,LIC,PHILADELPHIA,PA,US,71637,0.01,21.0,39.94825,-75.21875,UNKNOWN
WFCP,201,88.1,FM,LIC,PINE GROVE,PA,US,763335,0.2,196.0,-259501.250056,-76.376556,763335           0.2 kW DA     196. m    420. m        m   N 40 30  23.7  W  76 22  35.6             CALVARY CHAPEL BIBLE BROADCASTING
WRQV,201,88.1,FM,LIC,RIDGWAY,PA,US,175421,2.1,249.0,41.247,-78.647222,UNKNOWN
WSRU,201,88.1,FM,LIC,SLIPPERY ROCK,PA,US,60619,0.1,24.0,41.062,-80.042833,UNKNOWN
WRGN,201,88.1,FM,LIC,SWEET VALLEY,PA,US,24681,0.5,92.0,41.298389,-76.124083,UNKNOWN
WZZD,201,88.1,FM,LIC,WARWICK,PA,US,91617,0.43,185.0,40.129278,-75.878278,FOUR RIVERS COMMUNITY BROADCASTING CORP.
WKWP,201,88.1,FM,LIC,WILLIAMSPORT,PA,US,52188,0.55,27.0,41.262222,-77.033056,"K-LOVE, INC."
WKWP,201,88.1,FM,STA,WILLIAMSPORT,PA,US,52188,0.55,27.0,-267173.800153,-77.033056,"52188           0.55 kW         27. m    315. m        m   N 41 15  44.0  W  77  1  59.0  1049889    K-LOVE, INC."
WVYC,201,88.1,FM,LIC,YORK,PA,US,74381,0.036,0.0,39.947028,-76.729389,UNKNOWN
WCRP,201,88.1,FM,LIC,GUAYAMA,PR,US,42685,27.0,576.0,18.110556,-66.051667,"MINISTERIO RADIAL CRISTO VIENE PRONTO, INC"
WCRP,201,88.1,FM,STA,GUAYAMA,PR,US,42685,27.0,566.0,-198416.424167,-66.052222,"42685            27. kW        566. m    923. m        m   N 18 06   47.  W  66 03   08.             MINISTERIO RADIAL CRISTO VIENE PRONTO, INC"
WELH,201,88.1,FM,LIC,PROVIDENCE,RI,US,66656,4.0,0.0,41.8575,-71.317694,UNKNOWN
WKIV,201,88.1,FM,LIC,WESTERLY,RI,US,84180,1.0,64.0,41.405194,-71.811611,"K-LOVE, INC."
WSBF-FM,201,88.1,FM,LIC,CLEMSON,SC,US,12000,3.0,61.0,34.678417,-82.820694,UNKNOWN
WUBK,201,88.1,FM,LIC,ENOREE,SC,US,173812,0.097,59.0,-126144.866694,-82.031222,"173812         0.097 kW         59. m    267. m        m   N 34 37  50.4  W  82  1  52.4             RICHBURG EDUCATIONAL BROADCASTERS, INC"
W201CH,201,88.1,FX,LIC,SOUTH CHARLESTON,SC,US,92801,1.0,0.0,-286858.683336,-79.835278,"92801            .01 kW       135.3 m   204.8 m        m   N 32 49   5.0  W  79 50   7.0  1024868    CSN INTERNATIONAL, INC."
WRJA-FM,201,88.1,FM,LIC,SUMTER,SC,US,60974,100.0,305.0,33.88125,-80.270333,UNKNOWN
WRJA-FM,201,88.1,FM,LIC,SUMTER,SC,US,60974,21.86,0.0,-238647.239406,-80.270556,60974          21.86 kW        101. m   139.8 m        m   N 33 52  52.0  W  80 16  14.0  1059184    SOUTH CAROLINA EDUCATIONAL TV COMMISSION
KFCA,201,88.1,FM,LIC,ABERDEEN,SD,US,768640,2.3,32.0,-271334.667306,-98.503917,"768640           2.3 kW         32. m    435. m        m   N 45 28  20.1  W  98 30  14.1             AMERICAN CHRISTIAN RADIO, INC."
KFCA,201,88.1,FM,STA,ABERDEEN,SD,US,768640,2.3,32.0,-299381.667306,-98.503917,"768640           2.3 kW         32. m    435. m        m   N 45 28  20.1  W  98 30  14.1             AMERICAN CHRISTIAN RADIO, INC."
KFCA,201,88.1,FM,CP,ABERDEEN,SD,US,768640,0.4,25.0,-297209.666778,-98.503917,"768640           0.4 kW         25. m    428. m        m   N 45 28  20.1  W  98 30  14.1             AMERICAN CHRISTIAN RADIO, INC."
KFCA,201,88.1,FM,APP,ABERDEEN,SD,US,768640,0.4,25.0,-299507.666778,-98.503917,"768640           0.4 kW         25. m    428. m        m   N 45 28  20.1  W  98 30  14.1             AMERICAN CHRISTIAN RADIO, INC."
K201AP,201,88.1,FX,LIC,BELLE FOURCHE,SD,US,62384,0.009,-11.0,44.656639,-103.847417,UNKNOWN
K201AQ,201,88.1,FX,LIC,OT SPRINGS,SD,US,62386,0.047,171.0,43.44275,-103.457972,UNKNOWN
DDK209EM,201,88.1,FX,MOD,URON,SD,US,93602,0.25,0.0,-203660.033403,-98.244194,93602           0.25 kW          0. m    466. m        m   N 44 20  32.6  W  98 14  39.1  1036498    EDUCATIONAL MEDIA FOUNDATION
KGRH,201,88.1,FM,LIC,LOOMIS,SD,US,177168,0.35,0.0,43.701361,-98.063417,"THE PRAISE NETWORK, INC."
KOYA,201,88.1,FM,LIC,ROSEBUD,SD,US,173502,51.0,195.0,43.216944,-100.791528,ROSEBUD SIOUX TRIBE
KRSD,201,88.1,FM,LIC,SIOUX FALLS,SD,US,42909,2.0,56.0,43.526917,-96.738639,UNKNOWN
WJIG,201,88.1,FM,LIC,BRUCETON,TN,US,767841,0.15,21.0,-275075.350042,-88.200444,767841          0.15 kW         21. m    161. m        m   N 36  3  15.1  W  88 12   1.6             MEET MINISTRY
WUTC,201,88.1,FM,LIC,CHATTANOOGA,TN,US,69325,30.0,271.0,35.207278,-85.281056,UNKNOWN
WAMP,201,88.1,FM,LIC,JACKSON,TN,US,1524,0.75,41.0,35.660611,-88.858389,UNKNOWN
WRSN,201,88.1,FM,LIC,LEBANON,TN,US,176028,0.185,0.0,36.293472,-86.2575,"RISEN RADIO, INC."
WFSK-FM,201,88.1,FM,LIC,NASHVILLE,TN,US,21666,0.7,2.0,36.166722,-86.804694,UNKNOWN
WAZD,201,88.1,FM,LIC,SAVANNAH,TN,US,88091,0.38,39.0,35.216194,-88.241694,AMERICAN FAMILY ASSOCIATION
KGNZ,201,88.1,FM,LIC,ABILENE,TX,US,10920,91.0,252.0,32.229861,-99.628694,"CHRISTIAN BROADCASTING CO., INC."
KKWV,201,88.1,FM,LIC,ARANSAS PASS,TX,US,91069,8.5,117.0,27.867528,-97.218889,AMERICAN FAMILY ASSOCIATION
KVJS,201,88.1,FM,LIC,ARROYO,TX,US,173851,4.5,31.0,26.339944,-97.417889,UNKNOWN
KQUE-FM,201,88.1,FM,LIC,BAY CITY,TX,US,91338,3.6,437.0,28.801083,-96.125806,ALELUYA BROADCASTING NETWORK
KLBT,201,88.1,FM,LIC,BEAUMONT,TX,US,86329,30.0,0.0,29.914667,-94.285194,"THE KING'S MUSICIAN EDUCATIONAL FOUNDATION, INC."
KWAS,201,88.1,FM,MOD,BORGER,TX,US,72171,1.0,61.0,-287658.850278,-101.388889,72171             1. kW         61. m    982. m        m   N 35 40  42.0  W 101 23  20.0  1056554    TOP O' TEXAS EDUCATIONAL BROADCASTING FOUNDATION
KWAS,201,88.1,FM,LIC,BORGER,TX,US,72171,0.3,62.0,-155981.850083,-101.388778,72171            0.3 kW         62. m    982. m        m   N 35 40  42.2  W 101 23  19.6  1056554    TOP O' TEXAS EDUCATIONAL BROADCASTING FOUNDATION
K201BM,201,88.1,FX,LIC,CANADIAN,TX,US,72164,0.03,0.0,35.904778,-100.388194,TOP O' TEXAS EDUCATIONAL BROADCASTING FOUNDATION
KCCJ,201,88.1,FM,LIC,DALHART,TX,US,766779,0.25,16.0,-294550.650069,-102.509056,766779          0.25 kW         16. m   1236. m        m   N 36  6  35.1  W 102 30  32.6  1215017    KLMX EDUCATIONAL FOUNDATION
KNTU,201,88.1,FM,LIC,DENTON,TX,US,69003,100.0,111.0,33.290111,-97.136667,UNKNOWN
KGKV,201,88.1,FM,LIC,DOSS,TX,US,87230,6.0,100.0,30.372972,-99.084222,"K-LOVE, INC."
K201JB,201,88.1,FX,LIC,DUMAS,TX,US,154898,0.14,0.0,-247954.633372,-101.965444,154898          0.14 kW          0. m  1196.4 m        m   N 35 55  13.1  W 101 57  55.6  1213291    GRACE COMMUNITY CHURCH OF AMARILLO
KATG,201,88.1,FM,LIC,ELKHART,TX,US,86330,80.0,166.0,32.044889,-95.677194,AMERICAN FAMILY ASSOCIATION
K201HW,201,88.1,FX,MOD,EL PASO,TX,US,123360,0.01,0.0,-257181.000003,-106.488944,"123360          0.01 kW DA       0. m   1764. m        m   N 31 48  57.0  W 106 29  20.2  1216164    K-LOVE, INC."
K201HW,201,88.1,FX,LIC,EL PASO,TX,US,123360,0.006,0.0,31.815944,-106.488889,"K-LOVE, INC."
KVLW,201,88.1,FM,LIC,GATESVILLE,TX,US,86324,17.0,330.0,-259999.738056,-97.326972,"86324            17. kW DA     330. m    537. m        m   N 31 18  53.6  W  97 19  37.1  1059337    K-LOVE, INC."
KCTI-FM,201,88.1,FM,LIC,GONZALES,TX,US,91220,1.3,117.0,29.486083,-97.488333,SUN RADIO FOUNDATION
K201EP,201,88.1,FX,LIC,EREFORD,TX,US,90197,0.25,50.0,34.750056,-102.382139,CENTRO CRISTIANO DE VIDA ETERNA
KBWH,201,88.1,FM,LIC,OOKS,TX,US,765846,27.5,133.0,-289954.107639,-94.2075,"765846          27.5 kW DA     133. m    229. m        m   N 33 30  15.2  W  94 12  27.0  1059373    FAITH FAMILY MEDIA, INC."
K201IY,201,88.1,FX,LIC,OUSTON,TX,US,122072,0.001,0.0,-159441.533334,-95.509972,122072         0.001 kW DA       0. m   571.6 m        m   N 29 33  45.2  W  95 30  35.9  1059622    ALELUYA BROADCASTING NETWORK
K201EU,201,88.1,FX,LIC,KATY,TX,US,88918,0.25,61.0,29.847444,-95.883556,UNKNOWN
KHOY,201,88.1,FM,LIC,LAREDO,TX,US,16946,4.3,106.0,27.520306,-99.522278,"LAREDO CATHOLIC COMMUNICATIONS, INC."
KTXT-FM,201,88.1,FM,LIC,LUBBOCK,TX,US,65352,35.0,129.0,33.582028,-101.890722,UNKNOWN
KHID,201,88.1,FM,LIC,MCALLEN,TX,US,56082,2.1,0.0,26.361944,-98.3215,"RELEVANT RADIO, INC."
KNTU,201,88.1,FM,LIC,MCKINNEY,TX,US,69003,55.0,135.0,-205889.065278,-97.136389,69003            55. kW        135. m    330. m        m   N 33 17  24.0  W  97  8  11.0  1053099    UNIVERSITY OF NORTH TEXAS
KNTU,201,88.1,FM,MOD,MCKINNEY,TX,US,69003,79.0,0.0,-206067.071944,-97.136389,69003            79. kW DA     111. m   305.4 m        m   N 33 17  24.0  W  97  8  11.0  1053099    UNIVERSITY OF NORTH TEXAS
KFTG,201,88.1,FM,LIC,PASADENA,TX,US,12969,0.7,57.0,29.688556,-95.202139,UNKNOWN
K201DZ,201,88.1,FX,LIC,PORT BOLIVAR,TX,US,85717,2.0,0.0,-204479.616722,-94.952389,85717             .2 kW DA      89. m   102.8 m        m   N 29 24  43.6  W  94 57   8.6  1001973    ALELUYA BROADCASTING NETWORK
KLBD,201,88.1,FM,LIC,PREMONT,TX,US,176117,0.1,67.0,27.289194,-98.123333,THE WORSHIP CENTER OF KINGSVILLE
KRBP,201,88.1,FM,LIC,PRESIDIO,TX,US,172361,0.5,-16.0,-111337.683472,-104.3625,"172361           0.5 kW        -16. m    835. m        m   N 29 34    16  W 104 21    45             RADIO BILINGUE, INC."
KQMD,201,88.1,FM,LIC,QUEMADO,TX,US,172844,1.0,0.0,28.886361,-100.572583,MULTIMEDEOS RADIO OLA
K201FX,201,88.1,FX,MOD,RENO,TX,US,93759,0.092,0.0,-244582.650026,-95.5475,93759          0.092 kW DA    148.7 m   299.6 m        m   N 33 37  10.0  W  95 32  51.0  1051945    CSN INTERNATIONAL
K201FX,201,88.1,FX,LIC,RENO,TX,US,93759,0.075,0.0,33.619556,-95.547444,CSN INTERNATIONAL
KNLE-FM,201,88.1,FM,LIC,ROUND ROCK,TX,US,29293,3.0,71.0,30.449639,-97.6625,UNKNOWN
KNOO,201,88.1,FM,LIC,SIERRA BLANCA,TX,US,766981,0.1,22.0,-276177.016694,-105.355861,"766981           0.1 kW         22. m   1432. m        m   N 31 11  15.3  W 105 21  21.1             RADIO BILINGUE, INC."
KXBT,201,88.1,FM,LIC,SOMERVILLE,TX,US,173308,2.4,0.0,30.389417,-96.584611,THE UNIVERSITY OF TEXAS AT AUSTIN
KFLB-FM,201,88.1,FM,LIC,STANTON,TX,US,92993,100.0,0.0,32.095667,-101.813472,INTENTIONAL LIFE MEDIA
K201HZ,201,88.1,FX,LIC,TULIA,TX,US,154998,0.25,0.0,-216672.300069,-101.749722,154998          0.25 kW        89.2 m  1098.7 m        m   N 34 32  45.0  W 101 44  59.0  1046191    GRACE COMMUNITY CHURCH OF AMARILLO
KVED,201,88.1,FM,LIC,VERNON,TX,US,175039,9.0,163.0,-257129.319167,-99.5025,175039            9. kW        163. m    578. m        m   N 34 26  20.0  W  99 30   9.0  1012216    TOP O TEXAS EDUCATIONAL BROADCASTING FOUNDATION
K201AE,201,88.1,FX,LIC,UNKNOWN,XX,US,13479,0.115,0.0,40.854944,-111.479639,UNKNOWN
K201BY,201,88.1,FX,LIC,UNKNOWN,XX,US,69344,0.05,0.0,39.353278,-112.352417,UNKNOWN
K201CW,201,88.1,FX,LIC,MOAB,UT,US,8431,0.25,101.0,38.533583,-109.512611,UNKNOWN
KUHU,201,88.1,FM,LIC,MONTICELLO,UT,US,172928,0.252,1070.0,37.84025,-109.461778,UNKNOWN
KPGR,201,88.1,FM,LIC,PLEASANT GROVE,UT,US,1170,0.115,-344.0,40.363278,-111.72575,UNKNOWN
K201JD,201,88.1,FX,LIC,PROVO,UT,US,77062,0.01,0.0,-248336.366669,-111.822139,77062           0.01 kW DA       0. m   2090. m        m   N 40  5  25.8  W 111 49  19.7             CSN INTERNATIONAL
K201DP,201,88.1,FX,LIC,ST. GEORGE,UT,US,82787,0.092,0.0,37.063583,-113.5755,"CSN INTERNATIONAL, INC."
K201DP,201,88.1,FX,MOD,ST. GEORGE,UT,US,82787,14.0,0.0,-277183.783372,-113.574417,"82787            .14 kW          0. m   980.7 m        m   N 37  3  49.2  W 113 34  27.9  1240386    CSN INTERNATIONAL, INC."
K201CF,201,88.1,FX,LIC,TICABOO,UT,US,69087,0.008,338.0,37.857194,-110.712083,UNKNOWN
KNKL,201,88.1,FM,LIC,TREMONTON,UT,US,71394,8.6,359.0,41.89525,-112.079417,"K-LOVE, INC."
K201IZ,201,88.1,FX,LIC,VERNAL,UT,US,69976,0.205,0.0,-194088.266724,-109.497917,"69976          0.205 kW          0. m   1602. m        m   N 40 25  47.7  W 109 29  52.5  1321483    K-LOVE, INC."
W201CN,201,88.1,FX,LIC,AFTON,VA,US,93681,0.125,0.0,38.066222,-78.798056,UNKNOWN
W201AJ,201,88.1,FX,LIC,BIG STONE GAP,VA,US,2480,0.09,0.0,36.840917,-82.73875,UNKNOWN
WPRZ-FM,201,88.1,FM,LIC,BRANDY STATION,VA,US,121978,10.0,137.0,38.511667,-78.055833,"PRAISE COMMUNICATIONS, INC."
W201AI,201,88.1,FX,LIC,COEBURN,VA,US,2472,0.09,0.0,36.942861,-82.508472,UNKNOWN
WWER,201,88.1,FM,LIC,COLONIAL BEACH,VA,US,173456,0.1,0.0,38.262639,-76.998028,COLONIAL BEACH COMMUNITY RADIO
WHRL,201,88.1,FM,LIC,EMPORIA,VA,US,175907,4.2,0.0,36.684583,-77.561083,"HAMPTON ROADS EDUCATIONAL TELECOMMUNICATIONS ASSOC., INC."
WNBV,201,88.1,FM,LIC,GRUNDY,VA,US,173198,0.1,45.0,37.288417,-82.085667,UNKNOWN
WHOV,201,88.1,FM,LIC,AMPTON,VA,US,25952,8.0,59.0,37.017639,-76.336611,HAMPTON UNIVERSITY
WRIH,201,88.1,FM,LIC,RICHMOND,VA,US,87808,5.0,146.0,-99521.468056,-77.365,87808             5. kW DA     146. m    189. m        m   N 37 42  54.4  W  77 21  54.0  1266597    AMERICAN FAMILY ASSOCIATION
WNCH,201,88.1,FM,LIC,NORWICH,VT,US,84441,1.55,0.0,43.437583,-72.45175,VERMONT PUBLIC CO.
KUCC,201,88.1,FM,LIC,CLARKSTON,WA,US,88292,0.46,138.0,46.462917,-116.907917,UNKNOWN
KLUW,201,88.1,FM,LIC,EAST WENATCHEE,WA,US,85971,0.6,-40.0,47.380944,-120.288944,UNKNOWN
KCWU,201,88.1,FM,LIC,ELLENSBURG,WA,US,87833,0.43,-92.0,47.002611,-120.538111,UNKNOWN
K201EN,201,88.1,FX,LIC,EVERETT,WA,US,89734,0.005,0.0,48.051472,-121.8615,UNKNOWN
K201EN,201,88.1,FX,MOD,EVERETT,WA,US,89734,0.009,0.0,-274984.566669,-121.862139,"89734          0.009 kW       367.5 m    739. m        m   N 48  3   3.3  W 121 51  43.7             CSN INTERNATIONAL, INC."
K201EN,201,88.1,FX,MOD,EVERETT,WA,US,89734,17.0,0.0,-287579.566671,-121.922861,"89734           .017 kW DA    367.5 m   415.5 m        m   N 47 57  13.1  W 121 55  22.3  1315331    CSN INTERNATIONAL, INC."
K201FD,201,88.1,FX,LIC,FORKS,WA,US,92132,0.011,221.0,48.005333,-124.414639,UNKNOWN
KTCV,201,88.1,FM,LIC,KENNEWICK,WA,US,34022,3.5,-28.0,46.218472,-119.201417,KENNEWICK SCHOOL DISTRICT NO. 17
KYRS,201,88.1,FM,LIC,MEDICAL LAKE,WA,US,173886,6.8,876.0,48.180444,-117.987472,UNKNOWN
KAYB,201,88.1,FM,LIC,SUNNYSIDE,WA,US,78191,0.25,-58.0,46.33125,-120.015333,AMERICAN FAMILY ASSOCIATION
KYTR,201,88.1,FM,LIC,UNION GAP,WA,US,175692,0.052,0.0,46.631361,-120.536194,UNKNOWN
KWAO,201,88.1,FM,LIC,VASHON,WA,US,121867,65.0,667.0,-146060.134722,-123.372083,"121867           65. kW DA     667. m    947. m        m   N 47 18  45.6  W 123 22  19.5  1247912    K-LOVE, INC."
KWAO,201,88.1,FM,CP,VASHON,WA,US,121867,4.6,0.0,-151235.117944,-123.139167,"121867           4.6 kW DA     697. m   896.8 m        m   N 46 58  30.6  W 123  8  21.0  1231674    K-LOVE, INC."
K201DX,201,88.1,FX,LIC,WALLA WALLA,WA,US,85377,0.01,342.0,45.993722,-118.180778,UNKNOWN
WQWA-LP,201,88.1,FL,LIC,COLUMBUS,WI,US,197179,0.1,0.0,43.370528,-89.053417,UNKNOWN
WHID,201,88.1,FM,LIC,GREEN BAY,WI,US,4215,17.0,309.0,44.35925,-87.98575,BOARD OF REGENTS OF THE UNIVERSITY OF WISCONSIN SYSTEM
WHID,201,88.1,FM,LIC,GREEN BAY,WI,US,4215,1.85,0.0,-121009.250514,-88.001472,4215            1.85 kW        115. m   342.3 m        m   N 44 24  35.0  W  88  0   5.3  1312884    BOARD OF REGENTS OF THE UNIVERSITY OF WISCONSIN SYSTEM
WHID,201,88.1,FM,CP,GREEN BAY,WI,US,4215,0.185,115.0,44.409694,-88.001556,BOARD OF REGENTS OF THE UNIVERSITY OF WISCONSIN SYSTEM
WJTY,201,88.1,FM,LIC,LANCASTER,WI,US,32365,49.0,170.0,42.952444,-90.430139,INTENTIONAL LIFE MEDIA
WHJL,201,88.1,FM,LIC,MERRILL,WI,US,176585,63.0,189.0,45.352083,-89.653667,"WRVM, INC."
WHJL,201,88.1,FM,LIC,MERRILL,WI,US,176585,5.3,164.0,45.352083,-89.653667,"WRVM, INC."
WHJL,201,88.1,FM,MOD,MERRILL,WI,US,176585,3.0,0.0,-253155.084167,-89.653611,"176585            3. kW        164. m   611.2 m        m   N 45 21   7.6  W  89 39  13.0  1277357    WRVM, INC."
WMWK,201,88.1,FM,LIC,MILWAUKEE,WI,US,21010,1.1,0.0,43.090556,-87.897306,"LOAM MEDIA, INC."
WMWK,201,88.1,FM,MOD,MILWAUKEE,WI,US,21010,4.6,280.0,-281662.167944,-87.904167,"21010            4.6 kW        280. m    477. m        m   N 43  5  46.2  W  87 54  15.0  1057482    LOAM MEDIA, INC."
WWEN,201,88.1,FM,LIC,WENTWORTH,WI,US,88658,1.8,139.0,46.5355,-92.068806,REAL PRESENCE RADIO
WJJJ,201,88.1,FM,LIC,BECKLEY,WV,US,77815,0.84,348.0,37.590111,-81.114806,SHOFAR BROADCASTING CORPORATION
WZUM-FM,201,88.1,FM,LIC,BETHANY,WV,US,4954,1.1,125.0,40.216167,-80.558389,UNKNOWN
WTSQ-LP,201,88.1,FL,LIC,CHARLESTON,WV,US,194844,0.1,-27.0,-206792.400028,-81.632944,194844           0.1 kW        -27. m    250. m        m   N 38 20  59.8  W  81 37  58.6             MASQUE INFORMED
WKJL,201,88.1,FM,LIC,CLARKSBURG,WV,US,26526,32.0,149.0,39.299806,-80.291472,"K-LOVE, INC."
WMUL,201,88.1,FM,LIC,UNTINGTON,WV,US,66564,1.4,-15.0,38.424083,-82.428556,UNKNOWN
WVRR,201,88.1,FM,LIC,POINT PLEASANT,WV,US,53094,3.0,88.0,38.847028,-82.130417,"POSITIVE ALTERNATIVE RADIO, INC."
KCYO,201,88.1,FM,LIC,CHEYENNE,WY,US,86624,3.5,64.0,-190245.734306,-104.722167,"86624            3.5 kW         64. m   1898. m        m   N 41  9  34.5  W 104 43  19.8  1008318    COMMUNITY BROADCASTING, INC."
KGLL,201,88.1,FM,LIC,GILLETTE,WY,US,122432,0.2,85.0,44.230528,-105.463056,REAL PRESENCE RADIO
K201HM,201,88.1,FX,LIC,LARAMIE,WY,US,12349,0.023,0.0,-262453.816673,-105.453889,"12349          0.023 kW DA    -46.9 m   2712. m        m   N 41 18  39.0  W 105 27  14.0  1009525    COMMUNITY BROADCASTING, INC."
KFGR,201,88.1,FM,LIC,POWELL,WY,US,174192,0.6,481.0,44.585222,-108.850944,UNKNOWN
KCWC-FM,201,88.1,FM,LIC,RIVERTON,WY,US,10030,3.0,442.0,42.583,-108.710667,UNKNOWN
KPRQ,201,88.1,FM,LIC,SHERIDAN,WY,US,89885,0.45,341.0,44.623833,-107.117833,UNKNOWN
K201HS,201,88.1,FX,LIC,WORLAND,WY,US,155135,0.05,0.0,44.066611,-107.864528,UNKNOWN
KVRK,202,88.3,FM,LIC,CHICKALOON,AK,US,765583,0.37,-213.0,-207663.716769,-148.094833,"765583          0.37 kW       -213. m    802. m        m   N 61 48  32.8  W 148 05  41.4             RADIO FREE PALMER, INC."
KZLR,202,88.3,FM,LIC,FAIRBANKS,AK,US,176152,3.2,474.0,64.878722,-148.055194,UNKNOWN
KBKO,202,88.3,FM,LIC,KODIAK,AK,US,177368,0.1,4.0,-205547.133361,-152.361028,"177368           0.1 kW          4. m     64. m        m   N 57 48  40.1  W 152 21  39.7             SACRED HEART RADIO, INC."
K202DB,202,88.3,FX,LIC,UNALASKA,AK,US,93566,0.25,0.0,53.874694,-166.544389,"ALASKA VILLAGE MISSIONS, INC."
K202BT,202,88.3,FX,LIC,WHITTIER,AK,US,65231,0.05,-471.0,60.776917,-148.688778,UNKNOWN
WJUV,202,88.3,FM,LIC,CULLMAN,AL,US,177361,0.088,95.0,34.205667,-86.75,LA PROMESA FOUNDATION
WJCK,202,88.3,FM,LIC,PIEDMONT,AL,US,28334,2.7,295.0,33.83675,-85.733,UNKNOWN
WAPR,202,88.3,FM,STA,SELMA,AL,US,6125,53.0,427.0,-265370.098056,-86.74525,6125             53. kW        427. m    503. m        m   N 32  8  30.5  W  86 44  42.9             BOARD OF TRUSTEES OF THE UNIVERSITY OF ALABAMA
WAPR,202,88.3,FM,STA,SELMA,AL,US,6125,53.0,427.0,-276143.098056,-86.74525,6125             53. kW        427. m    503. m        m   N 32  8  30.5  W  86 44  42.9             BOARD OF TRUSTEES OF THE UNIVERSITY OF ALABAMA
WAPR,202,88.3,FM,LIC,SELMA,AL,US,6125,53.0,427.0,32.141806,-86.74525,UNKNOWN
KBCM,202,88.3,FM,LIC,BLYTHEVILLE,AR,US,84785,1.2,58.0,35.912583,-89.891194,AMERICAN FAMILY ASSOCIATION
KXUA,202,88.3,FM,LIC,FAYETTEVILLE,AR,US,86662,0.47,80.0,36.065611,-94.175194,UNKNOWN
KJSB,202,88.3,FM,LIC,JONESBORO,AR,US,106689,1.9,91.0,35.810083,-90.812611,AMERICAN FAMILY ASSOCIATION
KABF,202,88.3,FM,LIC,LITTLE ROCK,AR,US,2772,91.0,237.0,34.792028,-92.477361,UNKNOWN
K202EM,202,88.3,FX,LIC,BISBEE-DOUGLAS,AZ,US,3391,0.07,0.0,31.472611,-109.954528,UNKNOWN
KMUR,202,88.3,FM,LIC,BULLHEAD CITY,AZ,US,173675,13.5,563.0,35.032778,-114.366611,UNKNOWN
KMUR,202,88.3,FM,CP,BULLHEAD CITY,AZ,US,793397,245.0,0.0,-298968.283401,-113.905861,"793397          .245 kW DA       0. m   2357. m        m   N 35 05  39.1  W 113 54  21.1             ADVANCE MINISTRIES, INC."
KMUR,202,88.3,FM,LIC,BULLHEAD CITY,AZ,US,173675,7.0,680.0,-226586.583528,-114.743583,"173675            .7 kW DA     680. m   1474. m        m   N 35 14  47.7  W 114 44  36.9             ADVANCE MINISTRIES, INC."
KAUB,202,88.3,FM,AMD,GANADO,AZ,US,767579,1.0,6.0,-178860.983611,-109.446861,767579            1. kW          6. m   2101. m        m   N 35 44  24.5  W 109 26  48.7  1268578    GALLUP PUBLIC RADIO
KVCP,202,88.3,FM,LIC,PHOENIX,AZ,US,47667,22.5,304.0,-213622.45625,-112.092778,"47667           22.5 kW        304. m    704. m        m   N 33 35    47  W 112  5    34  1002936    VCY AMERICA, INC."
KRXS,202,88.3,FM,LIC,TUSAYAN,AZ,US,766523,0.04,88.0,-271717.383344,-112.1245,766523          0.04 kW         88. m   2022. m        m   N 35 58  30.5  W 112  7  28.2             NEW PATH COMMUNICATIONS
KTCN,202,88.3,FM,LIC,ACTON,CA,US,174673,0.12,0.0,-116916.2167,-118.124222,174673          0.12 kW DA    -98.2 m    990. m        m   N 34 29  14.0  W 118  7  27.2             COMMON COMMUNICATIONS SOUTHERN CALIFORNIA
K202DM,202,88.3,FX,LIC,BARSTOW,CA,US,20525,0.01,0.0,34.970806,-117.040306,UNKNOWN
KCPC,202,88.3,FM,LIC,CAMINO,CA,US,122735,0.115,120.0,38.749333,-120.669361,UNKNOWN
KAWK,202,88.3,FM,LIC,COALINGA,CA,US,85850,1.4,722.0,36.369667,-120.644944,UNKNOWN
K202DA,202,88.3,FX,LIC,FORT JONES,CA,US,92939,0.013,229.0,41.595694,-122.876972,PACIFIC CASCADE COMMUNICATIONS CORPORATION
KAXL,202,88.3,FM,LIC,GREENACRES,CA,US,60582,21.0,100.0,35.415222,-119.234528,UNKNOWN
KGUA,202,88.3,FM,LIC,GUALALA,CA,US,174202,2.8,240.0,38.824889,-123.573056,UNKNOWN
KLVN,202,88.3,FM,LIC,LIVINGSTON,CA,US,83610,7.5,105.0,37.608556,-120.651583,"K-LOVE, INC."
KLVC,202,88.3,FM,LIC,MAGALIA,CA,US,18832,5.7,420.0,-184815.86825,-121.711944,"18832            5.7 kW        420. m   1174. m        m   N 39 57  40.2  W 121 42  43.0  1012346    K-LOVE, INC."
KUCR,202,88.3,FM,LIC,RIVERSIDE,CA,US,66318,0.15,494.0,33.966139,-117.288083,UNKNOWN
KSDS,202,88.3,FM,LIC,SAN DIEGO,CA,US,58818,22.0,75.0,32.804778,-117.170028,SAN DIEGO COMMUNITY COLLEGE DISTRICT
K202CT,202,88.3,FX,LIC,SANTA ROSA,CA,US,81204,0.01,305.0,38.508528,-122.662472,KQED INC.
KCLU-FM,202,88.3,FM,LIC,THOUSAND OAKS,CA,US,8220,3.2,158.0,34.218056,-118.945944,UNKNOWN
K202AT,202,88.3,FX,LIC,ASPEN,CO,US,8765,0.047,273.0,39.221083,-106.813639,UNKNOWN
KPYR,202,88.3,FM,LIC,CRAIG,CO,US,92704,0.25,271.0,40.563833,-107.611722,UNKNOWN
KVXO,202,88.3,FM,LIC,FORT COLLINS,CO,US,84102,0.14,374.0,40.616639,-105.327194,UNKNOWN
KVXO,202,88.3,FM,STA,FORT COLLINS,CO,US,84102,0.107,0.0,-267954.70003,-105.327194,"84102          0.107 kW       360.6 m  2531.6 m        m   N 40 36  59.9  W 105 19  37.9             PUBLIC BROADCASTING OF COLORADO, INC."
KRHJ,202,88.3,FM,LIC,LAMAR,CO,US,768099,0.5,36.0,-290026.650139,-102.5995,768099           0.5 kW         36. m   1182. m        m   N 38 02  12.8  W 102 35  58.2             KRH EDUCATIONAL FOUNDATION
KRHJ,202,88.3,FM,LIC,LAMAR,CO,US,768099,5.0,0.0,-208902.650001,-102.616972,768099          .005 kW        -4.3 m   1129. m        m   N 38 04  37.1  W 102 37  01.1             KRH EDUCATIONAL FOUNDATION
KPRH,202,88.3,FM,LIC,MONTROSE,CO,US,87104,3.5,511.0,38.387194,-107.675056,UNKNOWN
KTPL,202,88.3,FM,LIC,PUEBLO,CO,US,12362,65.0,69.0,37.944444,-104.999444,UNKNOWN
K202AB,202,88.3,FX,LIC,WEST GLENWOOD SPGS,CO,US,8763,0.099,0.0,39.562056,-107.317444,"CARBONDALE COMMUNITY ACCESS RADIO, INC."
KFFR,202,88.3,FM,LIC,WINTER PARK,CO,US,175799,1.3,94.0,-273489.983694,-105.891306,"175799           1.3 kW         94. m   2805. m        m   N 40  2  21.0  W 105 53  28.7  1330182    FRASER VALLEY COMMUNITY MEDIA, INC."
K202EK,202,88.3,FX,LIC,YUMA,CO,US,68217,0.113,0.0,40.143028,-102.814667,COMMUNITY RADIO FOR NORTHERN COLORADO
WDSK,202,88.3,FM,LIC,SOUTH KENT,CT,US,768354,0.099,10.0,-274683.900027,-73.4865,"768354         0.099 kW DA      10. m    246. m        m   N 41 40  54.3  W  73 29  11.4             FINE ARTS RADIO, INC."
WYBX,202,88.3,FM,STA,KEY WEST,FL,US,90786,1.9,0.0,-285876.100528,-81.740083,"90786            1.9 kW         31. m    32.1 m        m   N 24 34  20.5  W  81 44  24.3  1029778    BIBLE BROADCASTING NETWORK, INC."
WYBX,202,88.3,FM,LIC,KEY WEST,FL,US,90786,1.9,0.0,24.572361,-81.740083,"BIBLE BROADCASTING NETWORK, INC."
WBIY,202,88.3,FM,LIC,LA BELLE,FL,US,86109,9.0,70.0,26.723111,-81.500917,ASSOCIATION DES HAITIENS VIVANT A L'ETRANGER POUR LE DEVELOP
WAYP,202,88.3,FM,LIC,MARIANNA,FL,US,40082,70.0,0.0,30.438556,-85.424083,HOPE MEDIA GROUP
WPOZ-FM1,202,88.3,FL,AMD,MELBOURNE,FL,US,778356,0.5,0.0,-234623.600139,-80.703194,"778356           0.5 kW DA       0. m   152.4 m        m   N 28  8  12.3  W  80 42  11.5  1027712    CENTRAL FLORIDA EDUCATIONAL FOUNDATION, INC."
WPOZ,202,88.3,FM,MOD,ORLANDO,FL,US,9876,100.0,452.0,-258231.627778,-81.093333,"9876            100. kW DA     452. m    462. m        m   N 28 36   8.0  W  81  5  36.0  1026744    CENTRAL FLORIDA EDUCATIONAL FOUNDATION, INC."
WPOZ,202,88.3,FM,LIC,ORLANDO,FL,US,9876,100.0,0.0,28.602222,-81.093389,"CENTRAL FLORIDA EDUCATIONAL FOUNDATION, INC."
WPOZ,202,88.3,FL,LIC,ORLANDO,FL,US,9876,13.0,0.0,28.602222,-81.093389,"CENTRAL FLORIDA EDUCATIONAL FOUNDATION, INC."
WPOZ,202,88.3,FL,LIC,ORLANDO,FL,US,9876,9.0,45.0,28.65775,-81.425889,UNKNOWN
WGNK,202,88.3,FM,LIC,PENNSUCO,FL,US,27304,6.0,86.0,25.873694,-80.482833,GENESIS LICENSE SUBSIDIARY LLC
WLSF,202,88.3,FM,LIC,STARKE,FL,US,62344,7.0,87.0,29.909694,-82.100389,"K-LOVE, INC."
WPPR,202,88.3,FM,LIC,DEMOREST,GA,US,23949,7.3,0.0,34.523444,-83.679333,GEORGIA PUBLIC TELECOMMUNICATIONS COMMISSION
WAWH,202,88.3,FM,LIC,DUBLIN,GA,US,82033,0.4,25.0,32.541,-82.957361,UNKNOWN
WLYG,202,88.3,FM,LIC,JASPER,GA,US,90341,0.2,1.0,34.467028,-84.430194,UNKNOWN
WLPT,202,88.3,FM,LIC,JESUP,GA,US,23953,20.0,244.0,31.674389,-81.8865,"AUGUSTA RADIO FELLOWSHIP INSTITUTE, INC"
WRGC-FM,202,88.3,FM,LIC,MILLEDGEVILLE,GA,US,173100,4.8,117.0,33.068194,-83.274889,GEORGIA COLLEGE & STATE UNIVERSITY
WUTU,202,88.3,FM,LIC,SASSER,GA,US,172608,2.7,87.0,31.645167,-84.354083,"SOUTHWEST GEORGIA PROJECT FOR COMMUNITY EDUCATION, INC."
WPLH,202,88.3,FM,LIC,TIFTON,GA,US,762479,0.265,51.0,-209472.983407,-83.529167,762479         0.265 kW         51. m    152. m        m   N 31 29    02  W  83 31    45             ABRAHAM BALDWIN AGRICULTURAL COLLEGE
KIPH,202,88.3,FM,LIC,ANA,HI,US,172436,0.25,-42.0,20.750972,-156.00475,"HAWAII PUBLIC RADIO, INC."
KKOI,202,88.3,FM,LIC,KAHULUI,HI,US,767598,5.2,133.0,-262905.301444,-156.362194,"767598           5.2 kW DA     133. m    867. m        m   N 20 42   7.5  W 156 21  43.9             ADVANCED PUBLIC RADIO, INC."
KCCK-FM,202,88.3,FM,LIC,CEDAR RAPIDS,IA,US,34954,10.0,128.0,41.909167,-91.654889,UNKNOWN
KSHW,202,88.3,FM,LIC,GLIDDEN,IA,US,768291,3.0,27.0,-294334.850833,-94.729056,768291            3. kW         27. m    392. m        m   N 42 02  56.4  W  94 43  44.6             GRACE BAPTIST CHURCH
KKLG,202,88.3,FM,LIC,NEWTON,IA,US,92477,0.6,74.0,-204855.2835,-93.010556,"92477            0.6 kW         74. m    338. m        m   N 41 41  33.0  W  93  0  38.0  1016617    K-LOVE, INC."
KQLF,202,88.3,FM,LIC,OTTUMWA,IA,US,85844,1.4,44.0,41.033917,-92.409639,UNKNOWN
K202CG,202,88.3,FX,LIC,SPIRIT LAKE,IA,US,90145,0.25,0.0,-269639.416736,-95.062472,90145           0.25 kW        66.2 m    510. m        m   N 43 24  14.8  W  95  3  44.9             UNIVERSITY OF NORTHWESTERN - ST. PAUL
KJTT,202,88.3,FM,LIC,STORY CITY,IA,US,172392,1.9,70.0,42.224972,-93.561333,"MINN-IOWA CHRISTIAN BROADCASTING, INC."
KKAG,202,88.3,FM,LIC,GRANGEVILLE,ID,US,172903,0.05,0.0,45.863194,-116.12375,UNKNOWN
KGSY,202,88.3,FM,LIC,MCCALL,ID,US,172885,0.4,590.0,45.004889,-116.134556,UNKNOWN
KMHO,202,88.3,FM,AMD,MOUNTAIN HOME,ID,US,767950,1.35,108.0,-180007.167042,-115.566389,"767950          1.35 kW DA     108. m   1377. m        m   N 43 12  19.3  W 115 33  59.0             SALT & LIGHT RADIO, INC."
KWIS,202,88.3,FM,LIC,PLUMMER,ID,US,173445,2.4,288.0,47.326833,-116.716278,UNKNOWN
KRIF,202,88.3,FM,LIC,ROCKFORD,ID,US,763567,10.0,441.0,-268104.119444,-112.663083,763567           10. kW DA     441. m   2011. m        m   N 43 30   3.2  W 112 39  47.1             SOCIETY OF SAINT VINCENT DE PAUL HOLY SPIRIT CONFERENCE
WXAV,202,88.3,FM,LIC,CHICAGO,IL,US,62179,0.25,34.0,-116886.316736,-87.715194,62179           0.25 kW DA      34. m    224. m        m   N 41 42  38.2  W  87 42  54.7             ST. XAVIER UNIVERSITY
WZRD,202,88.3,FM,LIC,CHICAGO,IL,US,49444,0.1,22.0,41.98225,-87.718667,UNKNOWN
WQOT,202,88.3,FM,LIC,CLINTON,IL,US,763096,2.3,62.0,-257439.267306,-88.801111,763096           2.3 kW DA      62. m    283. m        m   N 40 11  13.0  W  88 48   4.0  1056498    2820 COMMUNICATIONS INC
WDGC-FM,202,88.3,FM,LIC,DOWNERS GROVE,IL,US,59285,0.25,40.0,41.804472,-88.012278,UNKNOWN
WAWF,202,88.3,FM,LIC,KANKAKEE,IL,US,78927,1.25,87.0,41.077528,-87.756139,"FAMILY WORSHIP CENTER CHURCH, INC."
WIUS,202,88.3,FM,LIC,MACOMB,IL,US,71788,0.22,34.0,40.465556,-90.685889,UNKNOWN
WHJR,202,88.3,FM,LIC,MURPHYSBORO,IL,US,175898,0.49,0.0,37.788694,-89.337139,UNKNOWN
WHCM,202,88.3,FM,LIC,PALATINE,IL,US,72720,0.1,0.0,42.081694,-88.073139,UNKNOWN
WPJC,202,88.3,FM,LIC,PONTIAC,IL,US,91342,20.0,39.0,-208123.372222,-88.644722,"91342            20. kW DA      39. m    239. m        m   N 40 53  11.0  W  88 38  41.0  1009349    2820 COMMUNICATIONS, INCORPORATED"
WJLY,202,88.3,FM,LIC,RAMSEY,IL,US,78719,25.0,153.0,39.135056,-89.100639,COUNTRYSIDE BROADCASTING
WBWJ,202,88.3,FM,LIC,ROCHESTER,IL,US,768557,1.25,66.0,-274515.283681,-89.542222,768557          1.25 kW DA      66. m    244. m        m   N 39 40  17.5  W  89 32  32.0  1271888    VANGUARD ASSOCIATION OF SUNBELT COLLEGES CORPORATION
WFEN,202,88.3,FM,LIC,ROCKFORD,IL,US,20468,8.5,175.0,42.363361,-89.135111,FAITH CENTER
WRLJ,202,88.3,FM,LIC,WHITE HALL,IL,US,89433,2.0,75.0,39.475306,-90.414278,UNKNOWN
WEAX,202,88.3,FM,LIC,ANGOLA,IN,US,67795,0.57,91.0,41.686694,-84.998,UNKNOWN
WDSO,202,88.3,FM,LIC,CHESTERTON,IN,US,17731,5.0,106.0,-203930.516681,-87.049806,17731            .05 kW        106. m    302. m        m   N 41 38   5.7  W  87  2  59.3  1264863    DUNELAND SCHOOL CORP.
WNIN-FM,202,88.3,FM,LIC,EVANSVILLE,IN,US,67801,17.0,256.0,37.983667,-87.270278,"WNIN TRI-STATE PUBLIC MEDIA, INC."
WNIN-FM,202,88.3,FM,STA,EVANSVILLE,IN,US,67801,17.0,256.0,-269732.021389,-87.270278,"67801            17. kW        256. m    380. m        m   N 37 59   1.2  W  87 16  13.0  1231157    WNIN TRI-STATE PUBLIC MEDIA, INC."
WNIN-FM,202,88.3,FM,LIC,EVANSVILLE,IN,US,67801,21.5,225.0,37.983667,-87.270278,"WNIN TRI-STATE PUBLIC MEDIA, INC."
WLAB,202,88.3,FM,LIC,FORT WAYNE,IN,US,28467,7.5,108.0,41.106722,-85.196083,"STAR EDUCATIONAL MEDIA NETWORK, INC."
WCKO,202,88.3,FM,LIC,KOKOMO,IN,US,766558,54.0,68.0,-260277.966817,-86.145278,"766558           .54 kW         68. m    317. m        m   N 40 30  20.0  W  86  8  43.0  1038877    K-LOVE, INC."
WKMV,202,88.3,FM,LIC,MUNCIE,IN,US,93830,0.28,103.0,40.156167,-85.429972,"K-LOVE, INC."
WARA-FM,202,88.3,FM,LIC,NEW WASHINGTON,IN,US,38461,0.95,0.0,38.5945,-85.468278,UNKNOWN
WHZN,202,88.3,FM,LIC,NEW WHITELAND,IN,US,93005,7.8,221.0,39.403944,-86.144722,OLIVET NAZARENE UNIVERSITY
WHZN,202,88.3,FM,STA,NEW WHITELAND,IN,US,93005,7.8,221.0,-264500.0855,-86.144722,93005            7.8 kW DA     221. m    460. m        m   N 39 24  14.2  W  86  8  41.0  1026377    OLIVET NAZARENE UNIVERSITY
K202BP,202,88.3,FX,LIC,UNKNOWN,XX,US,68680,0.078,62.0,39.801389,-98.673972,UNKNOWN
KBJQ,202,88.3,FM,LIC,BRONSON,KS,US,88668,36.0,116.0,37.898917,-95.00275,AMERICAN FAMILY ASSOCIATION
KVCO,202,88.3,FM,LIC,CONCORDIA,KS,US,12065,0.125,23.0,39.554722,-97.663639,UNKNOWN
KFMP,202,88.3,FM,LIC,MEADE,KS,US,767091,6.0,95.0,-230993.851667,-100.499444,"767091            6. kW         95. m    915. m        m   N 37 17  11.0  W 100 29  58.0  1032521    ST. JOHN THE BAPTIST CATHOLIC CHURCH OF MEADE, KANSAS"
KYFW,202,88.3,FM,LIC,WICHITA,KS,US,5098,17.0,43.0,37.672806,-97.335889,UNKNOWN
W202AZ,202,88.3,FX,LIC,FRANKFORT,KY,US,82908,0.038,0.0,38.212583,-84.885222,"BIBLE BROADCASTING NETWORK, INC."
WSGP,202,88.3,FM,LIC,GLASGOW,KY,US,91596,13.0,91.0,36.818111,-85.691639,SOMERSET EDUCATIONAL BROADCASTING FOUNDATION
WEBF,202,88.3,FM,LIC,LEROSE,KY,US,90101,7.8,0.0,37.613139,-83.671583,"HOUR OF HARVEST, INC."
KJGM,202,88.3,FM,LIC,BASTROP,LA,US,174146,63.0,82.0,32.620278,-91.729972,"FAMILY WORSHIP CENTER, INC."
KBYS,202,88.3,FM,LIC,LAKE CHARLES,LA,US,172777,15.0,86.0,-272690.620833,-93.205306,172777           15. kW DA      86. m     93. m        m   N 30 13  45.4  W  93 12  19.1  1322650    MCNEESE STATE UNIVERSITY
KBYS,202,88.3,FM,LIC,LAKE CHARLES,LA,US,172777,1.0,91.0,-277003.616944,-93.259528,172777            1. kW DA      91. m     98. m        m   N 30 12  23.8  W  93 15  34.3             MCNEESE STATE UNIVERSITY
WRBH,202,88.3,FM,STA,NEW ORLEANS,LA,US,54575,51.0,0.0,-243990.5975,-89.957833,"54575            51. kW        190. m   189.6 m        m   N 29 56  59.7  W  89 57  28.2  1020862    RADIO FOR THE BLIND & PRINT HANDICAPPED, INC."
WRBH,202,88.3,FM,LIC,NEW ORLEANS,LA,US,54575,51.0,0.0,29.949917,-89.957833,"RADIO FOR THE BLIND & PRINT HANDICAPPED, INC."
KAPI,202,88.3,FM,LIC,RUSTON,LA,US,1635,0.3,60.0,32.552361,-92.655972,UNKNOWN
WBMT,202,88.3,FM,LIC,BOXFORD,MA,US,40640,0.66,10.0,42.627306,-70.975028,UNKNOWN
WIQH,202,88.3,FM,LIC,CONCORD,MA,US,13556,0.1,28.0,42.447139,-71.347694,CONCORD-CARLISLE REGIONAL SCHOOL DISTRICT
WYZX,202,88.3,FM,LIC,EAST FALMOUTH,MA,US,175310,8.0,77.0,41.682611,-70.354194,HORIZON CHRISTIAN FELLOWSHIP
WGAO,202,88.3,FM,LIC,FRANKLIN,MA,US,15985,0.175,58.0,-107852.416715,-71.397833,15985          0.175 kW         58. m    131. m        m   N 42  5   8.3  W  71 23  52.2             DEAN COLLEGE
WRPS,202,88.3,FM,LIC,ROCKLAND,MA,US,57299,0.105,46.0,42.128417,-70.916139,UNKNOWN
WLVV,202,88.3,FM,LIC,MIDLAND,MD,US,176201,0.49,430.0,39.580083,-78.900833,UNKNOWN
WGBZ,202,88.3,FM,LIC,OCEAN CITY,MD,US,81959,50.0,0.0,38.386778,-75.290472,"ATLANTIC GATEWAY COMMUNICATIONS, INC."
WBSJ,202,88.3,FM,LIC,FRENCHVILLE,ME,US,762381,25.0,101.0,-274973.356944,-68.557833,762381           25. kW        101. m    364. m        m   N 47 15  30.1  W  68 33  28.2  1311504    MAINE PUBLIC BROADCASTING CORPORATION
WYAR,202,88.3,FM,LIC,YARMOUTH,ME,US,78242,1.0,24.0,43.765611,-70.140306,UNKNOWN
WCBN-FM,202,88.3,FM,LIC,ANN ARBOR,MI,US,66316,1.4,54.0,42.296694,-83.698278,REGENTS OF THE UNIVERSITY OF MICHIGAN
WXOU,202,88.3,FM,LIC,AUBURN HILLS,MI,US,49941,0.11,78.0,42.70975,-83.230472,UNKNOWN
WSMZ-FM,202,88.3,FM,STA,CRYSTAL VALLEY,MI,US,175566,1.5,172.0,-262207.100417,-86.238889,175566           1.5 kW        172. m    412. m        m   N 43 40  34.0  W  86 14  20.0  1004113    SMILE FM
WSMZ-FM,202,88.3,FM,LIC,CRYSTAL VALLEY,MI,US,175566,1.5,200.0,43.676111,-86.238972,SMILE FM
WTCY,202,88.3,FM,LIC,GREILICKVILLE,MI,US,171772,4.4,0.0,44.966389,-85.774528,"RELEVANT RADIO, INC."
WDTE,202,88.3,FM,LIC,GROSSE POINT SHORES,MI,US,175093,5.5,50.0,42.474083,-82.885639,SMILE FM
WKIW,202,88.3,FM,LIC,IRONWOOD,MI,US,92279,0.3,157.0,46.441056,-90.190722,"K-LOVE, INC."
WCXK,202,88.3,FM,LIC,KALAMAZOO,MI,US,24786,10.0,121.0,42.306417,-85.656944,CORNERSTONE UNIVERSITY
WKPK,202,88.3,FM,MOD,MICHIGAMME,MI,US,92241,40.0,285.0,-164214.361111,-87.620861,92241            40. kW        285. m    666. m        m   N 46 36  14.1  W  87 37  15.1  1230855    NORTHLAND COMMUNITY BROADCASTERS
WKPK,202,88.3,FM,LIC,MICHIGAMME,MI,US,92241,15.0,252.0,46.603833,-87.620972,NORTHLAND COMMUNITY BROADCASTERS
WNFA,202,88.3,FM,LIC,PORT HURON,MI,US,57705,1.3,61.0,42.993361,-82.46825,UNKNOWN
WSHJ,202,88.3,FM,LIC,SOUTHFIELD,MI,US,65449,0.105,21.0,42.470028,-83.264083,UNKNOWN
WEJC,202,88.3,FM,LIC,WHITE STAR,MI,US,64021,55.0,114.0,-144266.031944,-84.010278,64021            55. kW DA     114. m    304. m        m   N 43 42  16.0  W  84  0  37.0  1003536    SMILE FM
KBPN,202,88.3,FM,LIC,BRAINERD,MN,US,92068,5.0,204.0,46.422472,-94.461667,MINNESOTA PUBLIC RADIO
KWHH,202,88.3,FM,LIC,FAIRMONT,MN,US,768723,25.0,7.0,-271846.050069,-94.448306,"768723           .25 kW          7. m    362. m        m   N 43 40  04.7  W 094 26  53.9             WE HAVE THIS HOPE CHRISTIAN RADIO, INC."
KJCL,202,88.3,FM,LIC,FERGUS FALLS,MN,US,766415,0.5,17.0,-234042.583472,-96.039889,"766415           0.5 kW         17. m    394. m        m   N 46 14  20.5  W 096 02  23.6             WE HAVE THIS HOPE CHRISTIAN RADIO, INC."
WEQH,202,88.3,FM,LIC,ARMONY,MN,US,768698,2.2,91.0,-281713.633944,-91.862,"768698           2.2 kW         91. m    449. m        m   N 43 26    59  W  91 51  43.2  1285203    THE SALVATION POEM FOUNDATION, INC."
K202EO,202,88.3,FX,LIC,IBBING,MN,US,49769,0.027,0.0,-217604.483341,-92.899083,49769          0.027 kW          0. m    507. m        m   N 47 28  55.6  W  92 53  56.7             UNIVERSITY OF NORTHWESTERN-ST. PAUL
KITF,202,88.3,FM,LIC,INTERNATIONAL FALLS,MN,US,122662,5.8,47.0,48.473278,-93.333194,MINNESOTA PUBLIC RADIO
KJTS,202,88.3,FM,LIC,NEW ULM,MN,US,90944,2.4,29.0,44.268556,-94.439389,UNKNOWN
KTGT,202,88.3,FM,LIC,THIEF RIVER FALLS,MN,US,766417,5.0,9.0,-234632.616806,-96.1735,"766417            .5 kW          9. m    350. m        m   N 48  6    50  W 096 10  24.6             WE HAVE THIS HOPE CHRISTIAN RADIO, INC."
KJGT,202,88.3,FM,LIC,WACONIA,MN,US,172741,11.0,86.0,44.788861,-93.90775,"MINN-IOWA CHRISTIAN BROADCASTING, INC."
KYEC,202,88.3,FM,LIC,DONIPHAN,MO,US,173551,11.0,0.0,36.588944,-90.819556,CENTRAL EDUCATIONAL RADIO
KJAB-FM,202,88.3,FM,LIC,MEXICO,MO,US,41411,100.0,70.0,39.103639,-91.893222,MEXICO EDUCATIONAL BROADCASTING FOUNDATION
KVWS,202,88.3,FM,LIC,SEDALIA,MO,US,766724,12.0,131.0,-271568.736667,-93.524167,"766724           12. kW DA     131. m    399. m        m   N 38 35  37.0  W  93 31  27.0  1225874    COMMUNITY BROADCASTING, INC."
KWND,202,88.3,FM,LIC,SPRINGFIELD,MO,US,51636,35.0,0.0,37.175056,-93.043222,"RADIO TRAINING NETWORK, INC."
KWND,202,88.3,FM,LIC,SPRINGFIELD,MO,US,51636,12.0,100.0,37.175056,-93.043222,"RADIO TRAINING NETWORK, INC."
W202BS,202,88.3,FX,LIC,COLUMBIA,MS,US,93635,0.013,99.0,31.264056,-89.929806,"FAMILY WORSHIP CENTER CHURCH, INC."
WAFR,202,88.3,FM,LIC,TUPELO,MS,US,1592,75.0,150.0,34.474556,-88.728111,AMERICAN FAMILY ASSOCIATION
K202ET,202,88.3,FX,LIC,BILLINGS,MT,US,93794,75.0,0.0,-280203.233354,-108.452778,"93794           .075 kW DA       0. m  1160.5 m        m   N 45 45    32  W 108 27    10             CSN INTERNATIONAL, INC."
KEUR-LP,202,88.3,FL,LIC,EUREKA,MT,US,134900,0.01,-120.0,-108914.333336,-115.080167,"134900          0.01 kW       -120. m    842. m        m   N 48 54  31.9  W 115  4  48.6             EUREKA ADVENTIST RADIO, INC."
KQQM,202,88.3,FM,LIC,MILES CITY,MT,US,176165,4.0,170.0,46.408333,-105.663889,UNKNOWN
KJCG,202,88.3,FM,LIC,MISSOULA,MT,US,87476,1.0,620.0,46.801583,-113.973694,UNKNOWN
KYPY,202,88.3,FM,LIC,WEST YELLOWSTONE,MT,US,763116,0.46,-13.0,-278586.600128,-111.195778,763116          0.46 kW        -13. m   2165. m        m   N 44 45   3.7  W 111 11  44.8             MONTANA STATE UNIVERSITY - BILLINGS
KYPW,202,88.3,FM,LIC,WOLF POINT,MT,US,172712,0.73,59.0,48.035583,-105.520833,UNKNOWN
W202BQ,202,88.3,FX,LIC,ABERDEEN,NC,US,93560,0.01,0.0,35.176556,-79.414472,EDUCATIONAL INFORMATION CORP.
WXBE,202,88.3,FM,LIC,BEAUFORT,NC,US,78091,1.0,55.0,34.724056,-76.721333,AMERICAN FAMILY ASSOCIATION
WLXK,202,88.3,FM,LIC,BOILING SPRINGS,NC,US,23156,50.0,92.0,35.231222,-81.715667,"K-LOVE, INC."
W202CM,202,88.3,FX,LIC,UNKNOWN,XX,US,71879,0.019,0.0,-272931.983339,-83.201139,"71879          0.019 kW          0. m   878.1 m        m   N 35 18  50.2  W  83 12   4.1  1298566    WESTERN NORTH CAROLINA PUBLIC RADIO, INC."
WVRL,202,88.3,FM,LIC,ELIZABETH CITY,NC,US,86560,50.0,136.0,36.311278,-76.292444,"LIBERTY UNIVERSITY, INC."
WVRL,202,88.3,FM,STA,ELIZABETH CITY,NC,US,86560,50.0,136.0,-277583.680556,-76.292444,"86560            50. kW DA     136. m    136. m        m   N 36 18  40.6  W  76 17  32.8  1026338    LIBERTY UNIVERSITY, INC."
WUAW,202,88.3,FM,LIC,ERWIN,NC,US,9842,3.0,63.0,35.337639,-78.663333,UNKNOWN
W202BW,202,88.3,FX,LIC,ARRISBURG,NC,US,87356,0.01,0.0,35.251806,-80.686444,"VICTORY CHRISTIAN CENTER, INC."
WLPJ,202,88.3,FM,LIC,JACKSONVILLE,NC,US,765439,0.85,60.0,-278194.316903,-77.413889,"765439          0.85 kW DA      60. m     70. m        m   N 34 44  57.0  W  77 24  50.0  1044631    ROANOKE VALLEY COMMUNICATIONS, INC."
WGTL,202,88.3,FM,LIC,LA GRANGE,NC,US,762604,10.0,77.0,-274660.069444,-77.850028,"762604           10. kW DA      77. m    113. m        m   N 35  8   9.5  W  77 51   0.1  1283952    PATHWAY CHRISTIAN ACADEMY, INC."
WRNC,202,88.3,FM,LIC,ROCKINGHAM,NC,US,762613,15.0,94.0,-283012.220833,-79.662222,762613           15. kW DA      94. m    192. m        m   N 34 56  31.9  W  79 39  44.0  1051513    THE POWER FOUNDATION
W202CD,202,88.3,FX,LIC,WILSON,NC,US,148153,0.038,0.0,35.747944,-78.020278,"K-LOVE, INC."
KBMK,202,88.3,FM,LIC,BISMARCK,ND,US,93533,6.3,111.0,-136067.885083,-100.774722,"93533            6.3 kW        111. m    647. m        m   N 46 49  38.0  W 100 46  29.0  1044750    K-LOVE, INC."
KYBD,202,88.3,FM,LIC,GRAND FORKS,ND,US,762237,1.5,74.0,-293284.950417,-97.04875,"762237           1.5 kW         74. m    331. m        m   N 47 52  33.0  W  97  2  55.5  1060590    BIBLE BROADCASTING NETWORK, INC."
KQIQ,202,88.3,FM,LIC,BEATRICE,NE,US,93284,4.2,103.0,40.1825,-96.975861,MYBRIDGE
K202CJ,202,88.3,FX,LIC,DESHLER,NE,US,83068,0.25,63.0,40.088056,-97.707528,UNKNOWN
KLNB,202,88.3,FM,LIC,GRAND ISLAND,NE,US,91842,1.7,0.0,40.913889,-98.398111,"K-LOVE, INC."
KOLB,202,88.3,FM,LIC,ARTINGTON,NE,US,173307,100.0,0.0,42.395528,-97.621694,"VSS CATHOLIC COMMUNICATIONS, INC."
KLJV,202,88.3,FM,LIC,SCOTTSBLUFF,NE,US,121887,0.39,238.0,41.839139,-103.831889,"K-LOVE, INC."
WANH,202,88.3,FM,LIC,MEREDITH,NH,US,122150,0.38,123.0,43.685611,-71.485889,UNKNOWN
WEVS,202,88.3,FM,LIC,NASHUA,NH,US,84847,5.0,21.0,-118213.118056,-71.480417,"84847             5. kW DA      21. m     89. m        m   N 42 44  58.1  W  71 28  49.5             NEW HAMPSHIRE PUBLIC RADIO, INCORPORATED"
WVBH,202,88.3,FM,LIC,BEACH HAVEN WEST,NJ,US,89740,0.1,130.0,39.715667,-74.291806,"PRIORITY RADIO, INC."
WBGO,202,88.3,FM,LIC,NEWARK,NJ,US,48699,2.5,0.0,40.756222,-73.98625,"NEWARK PUBLIC RADIO, INC."
WBGO,202,88.3,FM,LIC,NEWARK,NJ,US,48699,1.2,131.0,-207429.650333,-74.170417,"48699            1.2 kW        131. m    166. m        m   N 40 44  11.3  W  74 10  13.5             NEWARK PUBLIC RADIO, INC."
KLYT,202,88.3,FM,LIC,ALBUQUERQUE,NM,US,10945,4.1,1294.0,35.213667,-106.450861,"CALVARY ALBUQUERQUE, INC."
KLHK,202,88.3,FM,LIC,OBBS,NM,US,93053,3.6,121.0,32.713444,-103.091306,"K-LOVE, INC."
K202EF,202,88.3,FX,LIC,TUCUMCARI,NM,US,154457,0.14,0.0,35.139778,-103.745778,UNKNOWN
KYSA,202,88.3,FM,LIC,SPARKS,NV,US,124888,2.95,871.0,-160768.467486,-119.467611,"124888          2.95 kW        871. m   2538. m        m   N 39 45  39.4  W 119 28  03.4             K-LOVE, INC."
WCOU,202,88.3,FM,LIC,ATTICA,NY,US,20634,11.0,163.0,42.826722,-78.206667,"FAMILY LIFE MINISTRIES, INC."
WCIN,202,88.3,FM,LIC,BATH,NY,US,768386,0.25,64.0,-208322.433403,-77.321194,"768386          0.25 kW         64. m    510. m        m   N 42 21  26.7  W 077 19  16.3             FAMILY LIFE MINISTRIES, INC."
WVCR-FM,202,88.3,FM,LIC,LOUDONVILLE,NY,US,60295,2.8,256.0,42.637028,-74.000972,SIENA COLLEGE
WVCR-FM,202,88.3,FM,MOD,LOUDONVILLE,NY,US,60295,17.5,256.0,-257713.921528,-74.000833,60295           17.5 kW DA     256. m    495. m        m   N 42 38  13.0  W  74  0   3.0  1004679    SIENA COLLEGE
WFSO,202,88.3,FM,LIC,OLIVEBRIDGE,NY,US,11077,0.578,33.0,41.908417,-74.245694,UNKNOWN
W202CI,202,88.3,FX,LIC,RICHVILLE,NY,US,24619,0.055,0.0,44.345056,-75.486861,UNKNOWN
WLIW-FM,202,88.3,FM,LIC,SOUTHAMPTON,NY,US,38340,25.0,66.0,40.888139,-72.444806,UNKNOWN
WLIW-FM,202,88.3,FM,LIC,SOUTHAMPTON,NY,US,38340,4.5,66.0,40.888139,-72.444806,UNKNOWN
WSBU,202,88.3,FM,LIC,ST. BONAVENTURE,NY,US,62106,0.165,-78.0,42.079222,-78.485,UNKNOWN
WAER,202,88.3,FM,LIC,SYRACUSE,NY,US,64354,50.0,84.0,43.033667,-76.131028,SYRACUSE UNIVERSITY
WXLS,202,88.3,FM,LIC,TUPPER LAKE,NY,US,175082,0.11,433.0,44.1595,-74.475722,UNKNOWN
WBWC,202,88.3,FM,LIC,BEREA,OH,US,3638,4.0,78.0,41.418111,-81.900694,BALDWIN WALLACE UNIVERSITY
WAIF,202,88.3,FM,LIC,CINCINNATI,OH,US,63203,1.6,120.0,39.126722,-84.484944,"THE REAL STEPCHILD RADIO OF CINCINNATI, INC. #1"
W202CE,202,88.3,FX,LIC,COSHOCTON,OH,US,92405,0.25,0.0,40.270333,-81.859833,UNKNOWN
WMRT,202,88.3,FM,LIC,MARIETTA,OH,US,40117,9.2,62.0,-221871.619222,-81.442611,40117            9.2 kW         62. m    293. m        m   N 39 25  08.2  W  81 26  33.4  1222994    MARIETTA COLLEGE
WHRN,202,88.3,FM,LIC,NEWARK,OH,US,766443,4.7,63.0,-275984.051306,-82.407083,766443           4.7 kW DA      63. m    363. m        m   N 40  5  23.2  W  82 24  25.5  1233564    STRONG TOWER CHRISTIAN MEDIA
WHRN,202,88.3,FM,MOD,NEWARK,OH,US,766443,1.7,144.0,-290042.050472,-82.407167,766443           1.7 kW DA     144. m    445. m        m   N 40  5  22.6  W  82 24  25.8  1329877    STRONG TOWER CHRISTIAN MEDIA
WSGR,202,88.3,FM,LIC,NEW BOSTON,OH,US,65508,1.7,233.0,38.722639,-83.001389,"ST. GABRIEL RADIO, INC."
WLFC,202,88.3,FM,LIC,NORTH BALTIMORE,OH,US,21474,4.6,100.0,41.117833,-83.543806,THE UNIVERSITY OF FINDLAY
WHWN,202,88.3,FM,LIC,PAINESVILLE,OH,US,85786,0.7,44.0,41.704778,-81.242611,"LA CADENA MUNDIAL HISPANA, INC."
WAUI,202,88.3,FM,LIC,SHELBY,OH,US,82445,0.7,139.0,40.763944,-82.617667,AMERICAN FAMILY ASSOCIATION
WOAR,202,88.3,FM,LIC,SOUTH VIENNA,OH,US,92040,1.0,0.0,-169682.000278,-83.609917,"92040             1. kW        84.7 m    425. m        m   N 39 55  54.2  W  83 36  35.7  1062618    K-LOVE, INC."
WXTS-FM,202,88.3,FM,LIC,TOLEDO,OH,US,4194,0.105,38.0,41.668639,-83.554083,UNKNOWN
WXUT,202,88.3,FM,LIC,TOLEDO,OH,US,69200,0.1,58.0,41.65725,-83.61575,UNKNOWN
KBWW,202,88.3,FM,LIC,BROKEN BOW,OK,US,177112,3.4,210.0,34.208722,-94.783,GOLDEN BAPTIST CHURCH
K202EU,202,88.3,FX,LIC,ENID,OK,US,21057,0.14,0.0,-273874.950039,-97.99875,"21057           0.14 kW         80. m   503.7 m        m   N 36 24  28.4  W  97 59  55.5  1011491    GREAT PLAINS CHRISTIAN RADIO, INC."
KBEZ,202,88.3,FM,AMD,KETCHUM,OK,US,769045,3.0,91.0,-180658.4175,-95.056056,"769045            3. kW         91. m    319. m        m   N 36 30  41.4  W  95  3  21.8  1278495    CITIZENSHIP TULSA, INC."
KOSR,202,88.3,FM,LIC,STILLWATER,OK,US,173942,1.2,0.0,36.129611,-97.095694,UNKNOWN
KTGS,202,88.3,FM,LIC,TISHOMINGO,OK,US,85337,5.5,281.0,34.359528,-96.559722,"SOUTH CENTRAL OKLAHOMA CHRISTIAN BROADCASTING, INC."
KOEG,202,88.3,FM,LIC,WALTERS,OK,US,173588,10.0,0.0,34.505667,-98.401722,"OKLAHOMA CATHOLIC BROADCASTING, INC."
KSRG,202,88.3,FM,LIC,ASHLAND,OR,US,62105,0.23,410.0,42.297611,-122.750583,UNKNOWN
K202ER,202,88.3,FX,LIC,ASTORIA,OR,US,76097,0.013,0.0,-196639.283337,-123.897361,76097          0.013 kW          0. m    432. m        m   N 46 17  11.3  W 123 53  50.5             CENTRO FAMILIAR CRISTIANO
KBDM,202,88.3,FM,LIC,BOARDMAN,OR,US,768685,0.1,-33.0,-272228.416694,-119.688583,768685           0.1 kW        -33. m    103. m        m   N 45 50  39.6  W 119 41  18.9             IGLESIA CASA DE MILAGROS
KBDM,202,88.3,FM,MOD,BOARDMAN,OR,US,768685,4.5,78.0,-286516.417917,-119.55975,768685           4.5 kW DA      78. m    240. m        m   N 45 48  24.1  W 119 33  35.1  1217508    IGLESIA CASA DE MILAGROS
K202DT,202,88.3,FX,LIC,CANYONVILLE,OR,US,91875,0.01,0.0,-253037.250003,-123.286444,91875           0.01 kW DA    516.3 m   1063. m        m   N 42 54   5.4  W 123 17  11.2             CSN INTERNATIONAL
K202DH,202,88.3,FX,LIC,CONDON,OR,US,122071,0.025,0.0,45.243028,-120.1315,UNKNOWN
KCGA,202,88.3,FM,LIC,COTTAGE GROVE,OR,US,767543,0.1,-95.0,-277392.383361,-123.07575,767543           0.1 kW        -95. m    241. m        m   N 43 45  04.0  W 123 04  32.7             RURAL ORGANIZING PROJECT
KCGA,202,88.3,FM,LIC,COTTAGE GROVE,OR,US,767543,0.1,-95.0,-277392.383361,-123.07575,767543           0.1 kW        -95. m    241. m        m   N 43 45  04.0  W 123 04  32.7             RURAL ORGANIZING PROJECT
K202EH,202,88.3,FX,LIC,GOLD BEACH,OR,US,90256,0.05,0.0,42.440111,-124.417056,CSN INTERNATIONAL
KBVM,202,88.3,FM,LIC,PORTLAND,OR,US,41330,3.5,437.0,45.515944,-122.734278,"CATHOLIC BROADCASTING NORTHWEST, INC. DBA MATER DEI RADIO"
KBVM,202,88.3,FM,LIC,PORTLAND,OR,US,41330,2.6,473.0,45.515944,-122.734278,"CATHOLIC BROADCASTING NORTHWEST, INC. DBA MATER DEI RADIO"
KBVM,202,88.3,FM,LIC,PORTLAND,OR,US,41330,2.4,483.0,45.515944,-122.734278,"CATHOLIC BROADCASTING NORTHWEST, INC. DBA MATER DEI RADIO"
W202CK,202,88.3,FX,LIC,BUTLER,PA,US,147791,0.013,0.0,-179989.183337,-79.902778,"147791         0.013 kW          0. m   480.2 m        m   N 40 52  28.0  W  79 54  10.0  1027123    FAMILY LIFE MINISTRIES, INC"
WDCV-FM,202,88.3,FM,LIC,CARLISLE,PA,US,68238,0.45,-13.0,40.202583,-77.195806,UNKNOWN
WZXQ,202,88.3,FM,LIC,CHAMBERSBURG,PA,US,93044,0.11,352.0,39.961194,-77.475278,FOUR RIVERS COMMUNITY BROADCASTING CORP.
WZXE,202,88.3,FM,LIC,EAST NOTTINGHAM,PA,US,174592,0.48,145.0,39.733444,-75.965222,FOUR RIVERS COMMUNITY BROADCASTING CORP.
WWEC,202,88.3,FM,LIC,ELIZABETHTOWN,PA,US,19356,0.1,35.0,40.148139,-76.593556,UNKNOWN
WTWH,202,88.3,FM,LIC,AZLETON,PA,US,766931,0.4,247.0,-256484.183444,-76.115167,766931           0.4 kW DA     247. m    665. m        m   N 40 51    00  W  76  6  54.6  1025752    CALVARY CHAPEL BIBLE BROADCASTING
WYBQ,202,88.3,FM,LIC,LEESPORT,PA,US,175920,0.67,84.0,40.46925,-76.062444,"BIBLE BROADCASTING NETWORK, INC."
WTIO,202,88.3,FM,LIC,MAINESBURG,PA,US,177089,0.048,0.0,41.7595,-76.924944,UNKNOWN
WQHE,202,88.3,FM,LIC,OIL CITY,PA,US,172337,3.6,0.0,41.543167,-79.692222,HOLY FAMILY COMMUNICATIONS
WRCT,202,88.3,FM,LIC,PITTSBURGH,PA,US,1,1.75,22.0,40.444222,-79.943361,UNKNOWN
WCOB,202,88.3,FM,LIC,STATE COLLEGE,PA,US,91930,2.0,172.0,-258271.167222,-77.838611,"91930             2. kW        172. m    551. m        m   N 40 54   4.0  W  77 50  19.0  1026572    FAMILY LIFE MINISTRIES, INC."
WLKA,202,88.3,FM,LIC,TAFTON,PA,US,41202,1.1,251.0,41.543694,-75.461833,UNKNOWN
WRUO,202,88.3,FM,LIC,MAYAGUEZ,PR,US,69434,2.0,306.0,18.323278,-67.169889,UNKNOWN
WQRI,202,88.3,FM,LIC,BRISTOL,RI,US,57426,0.8,24.0,41.648417,-71.258917,UNKNOWN
WAFJ,202,88.3,FM,LIC,BELVEDERE,SC,US,54859,4.5,423.0,33.408194,-81.843167,"RADIO TRAINING NETWORK, INC."
W202CG,202,88.3,FX,LIC,CLINTON,SC,US,94256,0.027,0.0,34.527083,-81.897333,"FAMILY WORSHIP CENTER CHURCH, INC."
WMBJ,202,88.3,FM,LIC,MURRELLS INLET,SC,US,76588,6.4,0.0,33.657111,-79.03975,"RADIO TRAINING NETWORK, INC."
KESD,202,88.3,FM,LIC,BROOKINGS,SD,US,58359,50.0,190.0,44.336056,-97.228389,UNKNOWN
KCVP,202,88.3,FM,LIC,PIERRE,SD,US,767764,26.0,133.0,-253518.073889,-100.352778,"767764           26. kW        133. m    646. m        m   N 44 18  42.0  W 100 21  10.0  1042183    COMMUNITY BROADCASTING, INC."
KLMP,202,88.3,FM,LIC,RAPID CITY,SD,US,88452,63.0,522.0,44.328306,-103.834639,UNIVERSITY OF NORTHWESTERN - ST. PAUL
KLMP-FM1,202,88.3,FM,LIC,RAPID CITY,SD,US,161655,2.3,0.0,44.0925,-103.248528,UNIVERSITY OF NORTHWESTERN - ST. PAUL
KLMP,202,88.3,FM,LIC,RAPID CITY,SD,US,88452,2.3,108.0,-217982.200639,-103.248611,88452            2.3 kW DA     108. m   1198. m        m   N 44  5  33.0  W 103 14  55.0  1048502    UNIVERSITY OF NORTHWESTERN - ST. PAUL
WAYQ,202,88.3,FM,LIC,CLARKSVILLE,TN,US,83853,14.0,227.0,36.293389,-87.305556,HOPE MEDIA GROUP
WRCC,202,88.3,FM,LIC,DIBRELL,TN,US,176989,0.085,105.0,35.838944,-85.783861,SOUTH CENTRAL OKLAHOMA CHRISTIAN BROADCASTING INC
W202BG,202,88.3,FX,LIC,DYERSBURG,TN,US,88256,0.019,85.0,36.045361,-89.408972,"BIBLE BROADCASTING NETWORK, INC."
WCQR-FM,202,88.3,FM,LIC,KINGSPORT,TN,US,53101,1.2,650.0,36.431472,-82.137611,UNKNOWN
WYLV,202,88.3,FM,LIC,MAYNARDVILLE,TN,US,81317,2.85,452.0,36.003639,-83.942778,"K-LOVE, INC."
WMTS-FM,202,88.3,FM,LIC,MURFREESBORO,TN,US,41998,0.68,42.0,35.848944,-86.353056,MIDDLE TENNESSEE STATE UNIVERSITY
WBIA,202,88.3,FM,LIC,SHELBYVILLE,TN,US,81729,0.25,14.0,35.48175,-86.457778,AMERICAN FAMILY ASSOCIATION
KAWV,202,88.3,FM,LIC,ALICE,TX,US,91097,13.5,111.0,27.752528,-98.132222,AMERICAN FAMILY ASSOCIATION
KJRT,202,88.3,FM,LIC,AMARILLO,TX,US,72168,52.0,70.0,-272827.814444,-101.821667,72168            52. kW         70. m   1164. m        m   N 35  6  50.0  W 101 49  18.0  1235680    TOP O' TEXAS EDUCATIONAL BROADCASTING FOUNDATION
KBNR,202,88.3,FM,LIC,BROWNSVILLE,TX,US,73752,5.5,88.0,25.919806,-97.529139,"WORLD RADIO NETWORK, INC."
KRTG,202,88.3,FM,LIC,CARTHAGE,TX,US,173351,14.0,0.0,31.8445,-94.345778,UNKNOWN
K202CK,202,88.3,FX,LIC,CHILDRESS,TX,US,84025,0.2,96.0,34.438944,-100.219833,TOP O' TEXAS EDUCATIONAL BROADCASTING FOUNDATION
KRAF,202,88.3,FM,LIC,FORT STOCKTON,TX,US,176870,0.3,0.0,30.877528,-102.867667,UNKNOWN
KJRN,202,88.3,FM,LIC,KEENE,TX,US,61585,9.4,130.0,32.405694,-97.331972,SOUTHWESTERN ADVENTIST UNIVERSITY
K202EA,202,88.3,FX,LIC,LOCKHART,TX,US,78194,0.25,70.0,29.891417,-97.662556,"HOUSTON CHRISTIAN BROADCASTERS, INC."
KXJT,202,88.3,FM,LIC,RIO GRANDE CITY,TX,US,174932,2.65,149.0,26.428389,-98.827528,"RADIO BILINGUE, INC."
KPAC,202,88.3,FM,LIC,SAN ANTONIO,TX,US,65335,69.0,240.0,29.523833,-98.723917,TEXAS PUBLIC RADIO
KPAC,202,88.3,FM,LIC,SAN ANTONIO,TX,US,65335,0.5,107.0,29.518556,-98.57,UNKNOWN
KTHN-LP,202,88.3,FL,LIC,TEXARKANA,TX,US,195454,0.1,24.0,33.439278,-94.066556,UNKNOWN
K202DR,202,88.3,FX,LIC,WICHITA FALLS,TX,US,49329,0.25,0.0,33.900389,-98.538944,"NORTH TEXAS PUBLIC BROADCASTING, INC."
KAFR,202,88.3,FM,LIC,WILLIS,TX,US,81300,100.0,135.0,30.464639,-95.505778,AMERICAN FAMILY ASSOCIATION
K202AW,202,88.3,FX,LIC,CEDAR CITY,UT,US,69147,0.009,429.0,37.638306,-113.031889,UNKNOWN
KUXU,202,88.3,FM,LIC,MONROE,UT,US,173050,2.5,973.0,-96910.167361,-112.33325,173050           2.5 kW        973. m   3577. m        m   N 38 23   7.9  W 112 19  59.7             UNIVERSITY OF UTAH
K202AD,202,88.3,FX,LIC,UNKNOWN,XX,US,69162,0.019,405.0,39.227722,-111.146833,UNKNOWN
K202AF,202,88.3,FX,LIC,UNKNOWN,XX,US,69289,0.02,339.0,41.625194,-111.123778,UNKNOWN
KUUB,202,88.3,FM,LIC,SALT LAKE CITY,UT,US,13481,3.3,421.0,-286213.68425,-112.131389,13481            3.3 kW DA     421. m   2093. m        m   N 40 37  53.0  W 112  7  53.0             UNIVERSITY OF UTAH
K202EJ,202,88.3,FX,LIC,WELLSVILLE,UT,US,93021,0.019,0.0,41.611306,-111.952167,UNKNOWN
WOTC,202,88.3,FM,LIC,EDINBURG,VA,US,69673,1.0,123.0,38.804028,-78.688611,UNKNOWN
WRVL,202,88.3,FM,LIC,LYNCHBURG,VA,US,37249,28.0,346.0,37.1975,-79.351667,"LIBERTY UNIVERSITY, INC."
WRVL,202,88.3,FM,LIC,LYNCHBURG,VA,US,37249,34.0,305.0,37.197361,-79.351694,"LIBERTY UNIVERSITY, INC."
WQIQ,202,88.3,FM,LIC,SPOTSYLVANIA,VA,US,172441,3.5,120.0,38.129861,-77.715,"VIRGINIA TECH FOUNDATION, INC."
WHCD,202,88.3,FM,LIC,WYTHEVILLE,VA,US,768654,0.15,-13.0,-272407.900042,-81.101114,768654          0.15 kW        -13. m    749. m        m   N 36 56 44.68  W  81  6  4.01             APPALACHIAN EDUCATIONAL COMMUNICATION CORPORATION
WNUB-FM,202,88.3,FM,LIC,NORTHFIELD,VT,US,66513,0.27,-113.0,44.140056,-72.659528,UNKNOWN
KMRE,202,88.3,FM,LIC,BELLINGHAM,WA,US,762145,0.12,101.0,-234048.4167,-122.4625,762145          0.12 kW        101. m    190. m        m   N 48 48   3.0  W 122 27  45.0  1058268    KULSHAN COMMUNITY MEDIA
K201FD,202,88.3,FX,MOD,FORKS,WA,US,92132,23.0,0.0,-273266.53334,-124.414639,"92132           .023 kW          0. m    396. m        m   N 48  0  19.2  W 124 24  52.7             CSN INTERNATIONAL, INC."
KHNW,202,88.3,FM,LIC,MANSON,WA,US,172300,0.34,166.0,47.854278,-120.167556,UNKNOWN
KMLW,202,88.3,FM,LIC,MOSES LAKE,WA,US,43702,4.0,207.0,46.941806,-119.429167,UNKNOWN
K202ED,202,88.3,FX,LIC,MOUNT VERNON,WA,US,86755,0.004,0.0,48.365083,-122.26875,UNKNOWN
KSBC,202,88.3,FM,LIC,NILE,WA,US,83463,0.2,-349.0,46.833722,-120.938111,UNKNOWN
KGTC,202,88.3,FM,LIC,OROVILLE,WA,US,768228,0.5,-394.0,-281859.800139,-119.436722,768228           0.5 kW       -394. m    291. m        m   N 48 56   5.5  W 119 26  12.2             RUTH'S HOUSE OF HOPE
WHWC,202,88.3,FM,LIC,MENOMONIE,WI,US,63078,71.0,320.0,45.046917,-91.863222,STATE OF WISCONSIN - EDUCATIONAL COMMUNICATIONS BOARD
WHWC,202,88.3,FM,LIC,MENOMONIE,WI,US,63078,7.6,297.0,45.046917,-91.863222,STATE OF WISCONSIN - EDUCATIONAL COMMUNICATIONS BOARD
W217CH,202,88.3,FX,MOD,WILLIAMSON,WV,US,71664,0.25,0.0,-278267.400069,-82.253194,71664           0.25 kW DA       0. m   600.2 m        m   N 37 41  13.6  W  82 15  11.5  1275091    WEST VIRGINIA EDUCATIONAL BROADCASTING AUTHORITY
KBTG,202,88.3,FM,LIC,BUFFALO,WY,US,766942,22.0,-70.0,-234981.366728,-106.687447,766942           .22 kW        -70. m   1460. m        m   N 44 20 07.11  W 106 41 14.81             BUFFALO BAPTIST CHURCH
KAIX,202,88.3,FM,LIC,CASPER,WY,US,92997,3.7,558.0,-216009.951028,-106.307222,"92997            3.7 kW        558. m   2519. m        m   N 42 44  25.9  W 106 18  26.0  1009562    K-LOVE, INC."
KMLT,202,88.3,FM,LIC,JACKSON,WY,US,92472,0.3,286.0,-228634.200083,-110.754083,"92472            0.3 kW        286. m   2436. m        m   N 43 27  42.7  W 110 45  14.7             K-LOVE, INC."
K203AP,203,88.5,FX,LIC,AMBLER,AK,US,35437,0.017,0.0,67.086083,-157.853611,UNKNOWN
KAKL,203,88.5,FM,LIC,ANCHORAGE,AK,US,93003,11.0,-25.0,61.12,-149.897194,"K-LOVE, INC."
KHOQ,203,88.5,FM,AMD,OMER,AK,US,776245,0.00125,237.0,-209985.416667,-151.50875,776245       0.00125 kW        237. m    377. m        m   N 59 40  15.8  W 151 30  31.5  1246371    CSN INTERNATIONAL
K203CH,203,88.5,FX,LIC,JUNEAU,AK,US,82386,0.05,0.0,58.301056,-134.442306,UNKNOWN
K203BY,203,88.5,FX,LIC,KUPARUK,AK,US,76790,0.188,77.0,70.324972,-149.608361,UNKNOWN
